zid,name,tags,website,physical_address,phone,opening_hours,country_code,longitude,latitude,gisprecision,correctly_placed,created_at,updated_at,updated_by,facebook_page,categories
1007084,Abbotsford School,"State Co-Ed Primary, Intermediate School",http://www.abbotsford.school.nz,"72 North Taieri Road, Green Island, Dunedin",03 488 2642,,NZ,170.418991,-45.893563,number,1,2006-08-11T17:39:20Z,2013-04-12T15:09:14Z,zenbu,,ElementarySchool MiddleSchool
1007091,Aberdeen School,State Co-Ed Primary School,http://web.mac.com/aberdeenschool.web/iWeb/Site/Welcome.html,"60 Aberdeen Drive, Hamilton",07 847 7312,,NZ,175.243265,-37.789273,Address,1,2006-08-11T17:39:20Z,2007-11-11T17:57:01Z,burgla,,ElementarySchool
1007098,Aberfeldy School,"State Co-Ed Primary, Intermediate School",,"Parapara Highway, Wanganui",06 342 5757,,NZ,175.261738,-39.787417,manual,1,2006-08-11T17:39:20Z,2007-10-28T14:44:10Z,burgla,,ElementarySchool MiddleSchool
1007126,ACG Strathallan,"Private Co-Ed Primary, Intermediate, Secondary School",http://www.acg.ac.nz,"Hayfield Way, Karaka, South Auckland",09 295 0830,,NZ,174.902279,-37.083384,manual,1,2006-08-11T17:39:20Z,2013-04-12T15:01:23Z,zenbu,,ElementarySchool
1007133,Addington School,State Co-Ed Primary School,http://www.addington.school.nz/,"22 Brougham Street, Christchurch",03 366 2909,,NZ,172.618443,-43.547648,number,1,2006-08-11T17:39:21Z,2013-04-12T15:09:14Z,zenbu,,ElementarySchool
1007140,Adventure School,"State Co-Ed Primary, Intermediate School",http://www.adventure.school.nz,"Longitude Place, Whitby, Porirua",04 234 7220,,NZ,174.889963,-41.119735,manual,1,2006-08-11T17:39:21Z,2013-04-12T14:56:56Z,zenbu,,ElementarySchool MiddleSchool
1007147,Ahipara School,"State Co-Ed Primary, Intermediate School",http://www.ahipara.school.nz,"Main Road, Ahipara",09 409 4702,,NZ,173.15305,-35.171546,manual,1,2006-08-11T17:39:21Z,2007-04-03T18:56:52Z,burgla,,ElementarySchool MiddleSchool
1007154,Ahititi School,"State Co-Ed Primary, Intermediate School",,"3252 Mokau Road, Ahititi, New Plymouth",06 752 5890,,NZ,174.606797,-38.858863,manual,1,2006-08-11T17:39:21Z,2013-04-12T14:56:56Z,zenbu,,ElementarySchool MiddleSchool
1007161,Ahuroa School,"State Co-Ed Primary, Intermediate School",http://www.ahuroa.com/school,"1349 Ahuroa Road, Ahuroa",09 422 5898,,NZ,174.553161,-36.473324,number,1,2006-08-11T17:39:21Z,2007-01-23T12:29:28Z,zenbu,,ElementarySchool MiddleSchool
1007168,Aka Aka School,"State Co-Ed Primary, Intermediate School",http://www.akaaka.school.nz,"809 Aka Aka Main Road, Aka Aka, Waiuku",09 235 2806,,NZ,174.803724,-37.2825,manual,1,2006-08-11T17:39:21Z,2007-04-06T10:36:35Z,burgla,,ElementarySchool MiddleSchool
1007175,Akaroa Area School,"State Co-Ed Primary, Intermediate, Secondary School",http://www.akaroa.school.nz/,"141 Rue Jolie, Akaroa",03 304 7108,,NZ,172.962386,-43.811025,number,1,2006-08-11T17:39:21Z,2011-11-14T20:09:59Z,zenbu-cc,,School ElementarySchool MiddleSchool HighSchool
1007196,Albany School,State Co-Ed Primary School,http://www.albany.school.nz,"6 Bass Road, Albany, Auckland",09 415 9668,,NZ,174.690333,-36.736821,number,1,2006-08-11T17:39:21Z,2011-11-11T09:55:10Z,zenbu-cc,,ElementarySchool
1007203,Albury School,State Co-Ed Primary School,http://www.albury.school.nz/,"Station Street, Albury",03 685 5844,,NZ,170.87122,-44.231125,manual,1,2006-08-11T17:39:21Z,2013-04-12T14:56:56Z,zenbu,,ElementarySchool
1007210,Alexandra School,"State Co-Ed Primary, Intermediate School",http://www.alexandra.co.nz,"Ventry Street, Alexandra",03 448 8340,,NZ,169.390533,-45.255782,manual,1,2006-08-11T17:39:21Z,2013-04-12T14:56:56Z,zenbu,,ElementarySchool MiddleSchool
1007217,Alfredton School,"State Co-Ed Primary, Intermediate School",http://www.bushschools.ac.nz/alfredton,"Alfredton Road, Tararua",06 375 8082,,NZ,175.856577,-40.680272,manual,1,2006-08-11T17:39:22Z,2013-04-12T14:56:56Z,zenbu,,ElementarySchool MiddleSchool
1007231,Alfriston School,"State Co-Ed Primary, Intermediate School",http://home.xtra.co.nz/hosts/aflriston/,"Cnr Mill & Alfriston Roads, Alfriston",09 266 7845,,NZ,174.939712,-37.01662,manual,1,2006-08-11T17:39:22Z,2013-04-12T14:49:15Z,zenbu,,ElementarySchool MiddleSchool
1007238,Allandale School,State Co-Ed Primary School,http://www.allandale.school.nz/,"167 King Street, Kopeopeo, Whakatane",07 308 7645,,NZ,176.982315,-37.969043,Address,1,2006-08-11T17:39:22Z,2007-10-14T11:46:02Z,burgla,,ElementarySchool
1007245,Allenton School,State Co-Ed Primary School,http://www.allenton.school.nz/,"110 Harrison Street, Ashburton",03 308 6495,,NZ,171.741041,-43.885874,number,1,2006-08-11T17:39:22Z,2013-04-12T15:09:13Z,zenbu,,ElementarySchool
1007259,Al-Madinah School,"State Integrated Co-Ed Primary, Intermediate, Secondary School",http://www.al-madinah.school.nz/,"8 Westney Road, Mangere, Auckland",09 275 5195,,NZ,174.792326,-36.97667,number,1,2006-08-11T17:39:22Z,2013-04-12T14:56:56Z,zenbu,,ElementarySchool MiddleSchool
1007266,Amana Christian School,"Private Co-Ed Primary, Intermediate School",http://www.amana.school.nz,"80 Gordon Road, Mosgiel, Dunedin",03 489 2113,,NZ,170.3498,-45.878138,number,1,2006-08-11T17:39:22Z,2013-04-12T14:56:56Z,zenbu,,ElementarySchool
1007273,Amberley School,"State Co-Ed Primary, Intermediate School",,"Lawcocks Road, Amberley",03 314 8309,,NZ,172.723559,-43.152162,manual,1,2006-08-11T17:39:22Z,2013-04-12T14:56:56Z,zenbu,,ElementarySchool MiddleSchool
1007287,Amisfield School,"State Co-Ed Primary, Intermediate School",,"Moffat Road, Tokoroa",07 886 5968,,NZ,175.882573,-38.236528,manual,1,2006-08-11T17:39:23Z,2007-11-16T09:07:13Z,burgla,,ElementarySchool MiddleSchool
1007294,Amuri Area School,"State Co-Ed Primary, Intermediate, Secondary School",http://www.amuri.school.nz,"School Road, Culverden",03 315 8233,,NZ,172.846774,-42.77129,manual,1,2006-08-11T17:39:23Z,2013-04-12T14:56:56Z,zenbu,,School ElementarySchool MiddleSchool HighSchool
1007301,Anchorage Park School,State Co-Ed Primary School,http://www.anchoragepark.school.nz/,"Swan Crescent, Pakuranga, Auckland",09 576 9175,,NZ,174.866493,-36.919967,manual,1,2006-08-11T17:39:23Z,2007-12-08T19:51:34Z,burgla,,ElementarySchool
1007308,Andersons Bay School,State Co-Ed Primary School,http://www.andybay.ac.nz,"92 Jeffery Street, Andersons Bay, Dunedin",03 454 4413,,NZ,170.534682,-45.894843,number,1,2006-08-11T17:39:23Z,2011-11-11T09:55:10Z,zenbu-cc,,ElementarySchool
1007315,Aokautere School,State Co-Ed Primary School,,"160 Fitzherbert Road East , Aokautere, Palmerston North",06 357 4611,,NZ,175.665057,-40.363652,Address,1,2006-08-11T17:39:23Z,2007-10-27T20:23:28Z,burgla,,ElementarySchool
1007322,Aoraki Mount Cook School,"State Co-Ed Primary, Intermediate School",,Mt Cook,03 435 1835,,NZ,170.100889,-43.735383,manual,0,2006-08-11T17:39:23Z,2007-08-17T10:05:11Z,zenbu,,ElementarySchool MiddleSchool
1007336,Aorangi School (Rotorua),State Co-Ed Primary School,,"Gem Street, Western Heights, Rotorua",07 347 8448,,NZ,176.207957,-38.132075,manual,1,2006-08-11T17:39:23Z,2011-11-23T01:08:05Z,zenbu-cc,,ElementarySchool
1007357,Apanui School,State Co-Ed Primary School,,"92 McAlister Street, Whakatane",07 308 7687,,NZ,176.990716,-37.956512,number,1,2006-08-11T17:39:23Z,2011-11-11T09:55:10Z,zenbu-cc,,ElementarySchool
1007371,Apiti School,"State Co-Ed Primary, Intermediate School",http://www.apiti.school.nz,"Bryce Street, Apiti, Via Feilding",06 328 4884,,NZ,175.873405,-39.972791,manual,1,2006-08-11T17:39:23Z,2007-05-12T17:22:36Z,burgla,,ElementarySchool MiddleSchool
1007378,Appleby School,State Co-Ed Primary School,http://www.appleby.school.nz,"Cnr Moutere Highway & S H 60, Tasman",03 544 2898,,NZ,173.120145,-41.30621,manual,1,2006-08-11T17:39:24Z,2007-04-21T12:03:49Z,burgla,,ElementarySchool
1007399,Arahoe School,State Co-Ed Primary School,http://www.arahoe.school.nz,"11 Arahoe Road, New Lynn, Auckland",09 827 2710,,NZ,174.674122,-36.921955,Address,1,2006-08-11T17:39:24Z,2007-11-11T19:35:02Z,burgla,,ElementarySchool
1007413,Arakura School,State Co-Ed Primary School,http://www.arakura.school.nz,"Wellington Road, Wainuiomata, Lower Hutt",04 564 6920,,NZ,174.944465,-41.242046,manual,1,2006-08-11T17:39:24Z,2013-04-12T14:50:23Z,zenbu,,ElementarySchool
1007420,Aramoho School,"State Co-Ed Primary, Intermediate School",,"2 Mitchell Street, Aramoho, Wanganui",06 343 8249,,NZ,175.064096,-39.901924,number,1,2006-08-11T17:39:24Z,2013-04-12T14:56:56Z,zenbu,,ElementarySchool MiddleSchool
1007427,Aranga School,"State Co-Ed Primary, Intermediate School",http://www.aranga.school.nz/,"Aranga, Dargaville",09 439 0634,,NZ,173.613784,-35.739559,manual,1,2006-08-11T17:39:24Z,2008-05-24T17:06:15Z,burgla,,ElementarySchool MiddleSchool
1007441,Aranui Primary School (Christchurch),State Co-Ed Primary School,http://www.aranui.school.nz,"257 Breezes Road, Aranui, Christchurch",03 982 0057,,NZ,172.700419,-43.515968,number,1,2006-08-11T17:39:24Z,2011-10-05T01:12:54Z,zenbu-cc,,ElementarySchool
1007448,Aranui School (Wanganui),State Co-Ed Primary School,,"Aranui Avenue, Castlecliff, Wanganui",06 344 6183,,NZ,174.979935,-39.930208,manual,1,2006-08-11T17:39:24Z,2007-12-15T17:59:50Z,burgla,,ElementarySchool
1007455,Arapohue School,"State Co-Ed Primary, Intermediate School",,"Mititai Road, Arapohue, Dargaville",09 439 7513,,NZ,173.944302,-36.007104,manual,1,2006-08-11T17:39:25Z,2007-04-04T13:56:50Z,Magaret,,ElementarySchool MiddleSchool
1007462,Ararimu School,"State Co-Ed Primary, Intermediate School",http://www.ararimu.school.nz,"3 Steel Road, Drury, Drury",09 294 8372,,NZ,175.037339,-37.140409,manual,1,2006-08-11T17:39:25Z,2007-05-13T17:02:34Z,burgla,,ElementarySchool MiddleSchool
1007469,Arataki School,State Co-Ed Primary School,http://www.aratakischool.co.nz/Welcome.html,"4 Kaimanawa Street, Mt Maunganui",07 575 3497,,NZ,176.231329,-37.675122,Address,1,2006-08-11T17:39:25Z,2007-11-11T13:12:54Z,burgla,,ElementarySchool
1007476,Ardgowan School,"State Co-Ed Primary, Intermediate School",http://ardgowan.school.nz/,"Ardgowan Road, Oamaru",03 433 1366,,NZ,170.9671,-45.06148,manual,1,2006-08-11T17:39:25Z,2013-04-12T14:56:56Z,zenbu,,ElementarySchool MiddleSchool
1007483,Ardmore School,"State Co-Ed Primary, Intermediate School",,"599 Clevedon Road, Papakura",09 299 6228,,NZ,174.99981,-37.034077,manual,1,2006-08-11T17:39:25Z,2007-11-07T20:58:40Z,burgla,,ElementarySchool MiddleSchool
1007490,Argyll East School,"State Co-Ed Primary, Intermediate School",,"Argyll Road, Otane",06 857 5102,,NZ,176.532757,-39.861041,manual,1,2006-08-11T17:39:25Z,2013-04-12T14:49:15Z,zenbu,,ElementarySchool MiddleSchool
1007497,Aria School,State Co-Ed Primary School,http://www.aria.school.nz,"Barclay Road, Aria",07 877 7857,,NZ,174.98538,-38.562999,manual,1,2006-08-11T17:39:25Z,2013-04-12T14:56:57Z,zenbu,,ElementarySchool
1007511,Arohena School,"State Co-Ed Primary, Intermediate School",,"40 Pukewhau Road, Arohena, Waikato",07 872 4526,,NZ,175.615103,-38.192804,manual,1,2006-08-11T17:39:25Z,2007-10-12T21:14:59Z,burgla,,ElementarySchool MiddleSchool
1007518,Arowhenua Maori School,State Co-Ed Primary School,,"Huirapa Street, Arowhenua, Temuka",03 615 7391,,NZ,171.270611,-44.254913,manual,1,2006-08-11T17:39:25Z,2007-10-31T20:29:43Z,burgla,,ElementarySchool
1007525,Arrowtown School,"State Co-Ed Primary, Intermediate School",http://www.arrowtown.school.nz,"9 Chalmers Place, Arrowtown",03 442 1854,,NZ,168.83893,-44.948184,number,1,2006-08-11T17:39:25Z,2013-04-12T15:09:34Z,zenbu,,ElementarySchool MiddleSchool
1007532,Arthur Miller School,State Co-Ed Primary School,http://www.ams.school.nz,"Guppy Road, Taradale, Napier",06 844 6099,,NZ,176.858012,-39.541344,manual,1,2006-08-11T17:39:25Z,2008-10-14T00:46:29Z,HiggyRSQ,,ElementarySchool
1007539,Arthur Street School,"State Co-Ed Primary, Intermediate School",http://www.arthurst.school.nz,"26 Arthur Street, City Rise, Dunedin",03 477 6524,,NZ,170.495116,-45.872757,number,1,2006-08-11T17:39:26Z,2011-11-11T09:55:10Z,zenbu-cc,,ElementarySchool MiddleSchool
1007546,Ascot Community School,"State Co-Ed Primary, Intermediate School",http://www.ascot.school.nz,"580 Tay Street, Invercargill",03 217 5196,,NZ,168.385067,-46.407901,number,1,2006-08-11T17:39:26Z,2013-04-12T14:56:57Z,zenbu,,ElementarySchool MiddleSchool
1007553,Ashbrook School,"State Co-Ed Primary, Intermediate School",,"Wellington Street, Opotiki",07 315 7048,,NZ,177.293501,-38.014609,manual,1,2006-08-11T17:39:26Z,2007-10-13T22:02:20Z,burgla,,ElementarySchool MiddleSchool
1007560,Ashburton Borough School,"State Co-Ed Primary, Intermediate School",http://www.ashborough.school.nz,"Winter Street, Ashburton",03 307 8529,,NZ,171.742358,-43.902113,manual,1,2006-08-11T17:39:26Z,2013-04-12T14:56:57Z,zenbu,,ElementarySchool MiddleSchool
1007581,Ashburton Netherby School,State Co-Ed Primary School,,"51 Brucefield Avenue, Netherby, Ashburton",03 308 5799,,NZ,171.766507,-43.896411,Address,1,2006-08-11T17:39:26Z,2007-10-16T18:16:15Z,burgla,,ElementarySchool
1007588,Ashgrove School,"State Co-Ed Primary, Intermediate School",http://www.ashgrove.school.nz,"48 Seddon Street, Rangiora",03 313 8552,,NZ,172.581846,-43.300219,number,1,2006-08-11T17:39:26Z,2013-04-12T14:56:57Z,zenbu,,ElementarySchool MiddleSchool
1007595,Ashhurst School,"State Co-Ed Primary, Intermediate School",http://www.ashhurst.school.nz,"96 Cambridge Avenue, Ashhurst",06 326 8299,,NZ,175.755048,-40.290767,number,1,2006-08-11T17:39:26Z,2013-04-12T14:56:57Z,zenbu,,ElementarySchool MiddleSchool
1007602,Ashley School,"State Co-Ed Primary, Intermediate School",,"Boundary Road, Ashley",(03) 313 8907,,NZ,172.59603,-43.274526,manual,1,2006-08-11T17:39:26Z,2013-04-12T14:56:57Z,zenbu,,ElementarySchool MiddleSchool
1007644,Auckland Point School,"State Co-Ed Primary, Intermediate School",http://www.aps.school.nz,"Haven Road, Nelson",03 548 7970,,NZ,173.277939,-41.268122,manual,1,2006-08-11T17:39:27Z,2007-05-04T21:05:39Z,burgla,,ElementarySchool MiddleSchool
1007658,Auroa School,"State Co-Ed Primary, Intermediate School",,"Cnr Auroa & Skeet Roads, South Taranaki",06 274 5629,,NZ,174.044219,-39.483102,manual,1,2006-08-11T17:39:27Z,2007-04-21T12:04:59Z,burgla,,ElementarySchool MiddleSchool
1007679,Avalon School,State Co-Ed Primary School,,"Gordon Street, Avalon, Lower Hutt",04 939 9600,,NZ,174.944293,-41.194738,manual,1,2006-08-11T17:39:27Z,2007-09-08T23:19:51Z,vrod_rider,,ElementarySchool
1007686,Avon School,"State Co-Ed Primary, Intermediate School",http://www.avon.school.nz,"Hamlet Street, Stratford",06 765 7293,,NZ,174.284749,-39.351174,manual,1,2006-08-11T17:39:27Z,2013-04-12T14:56:58Z,zenbu,,ElementarySchool MiddleSchool
1007707,Avondale Primary School (Auckland),State Co-Ed Primary School,http://www.avondaleprimary.school.nz,"Crayford Street West, Avondale, Auckland",(09) 828 8929,,NZ,174.697959,-36.895976,manual,1,2006-08-11T17:39:28Z,2013-04-12T14:56:58Z,zenbu,,ElementarySchool
1007714,Avondale School (Christchurch),State Co-Ed Primary School,,"132 Breezes Road, Avondale, Christchurch",03 388 8371,,NZ,172.692061,-43.510226,number,1,2006-08-11T17:39:28Z,2011-10-05T01:12:49Z,zenbu-cc,,ElementarySchool
1007721,Avonhead School,"State Co-Ed Primary, Intermediate School",http://www.avonhead.school.nz,"55 Avonhead Road, Christchurch",03 348 7361,,NZ,172.559681,-43.524502,number,1,2006-08-11T17:39:28Z,2013-04-12T14:56:58Z,zenbu,,ElementarySchool MiddleSchool
1007735,Awahono School - Grey Valley,"State Co-Ed Primary, Intermediate School",,"20 Napoleon Street, Ahaura",03 732 3713,,NZ,171.53831,-42.347831,Address,1,2006-08-11T17:39:28Z,2013-04-12T14:56:58Z,zenbu,,ElementarySchool MiddleSchool
1007742,Awahou School,"State Co-Ed Primary, Intermediate School",http://www.awahou.school.nz,"518 Pohangina Valley East Rd, Ashhurst",06 329 4844,,NZ,175.811634,-40.177111,manual,1,2006-08-11T17:39:28Z,2007-09-25T18:11:09Z,burgla,,ElementarySchool MiddleSchool
1007749,Awakeri School,"State Co-Ed Primary, Intermediate School",http://awakeri.school.freeservers.com,"State Highway 30, Whakatane",07 304 9506,,NZ,176.897387,-37.995047,manual,1,2006-08-11T17:39:28Z,2007-07-28T03:56:21Z,muzzanz1,,ElementarySchool MiddleSchool
1007756,Awanui School,State Co-Ed Primary School,,"State Highway 1, Awanui",(09) 406 7309,,NZ,173.25474,-35.0386,manual,1,2006-08-11T17:39:28Z,2007-01-07T14:51:05Z,zenbu,,ElementarySchool
1007763,Awapuni School (Gisborne),State Co-Ed Primary School,http://www.awapuni.schoolzone.net.nz,"129 Awapuni Road, Gisborne",06 868 6660,,NZ,178.009749,-38.668241,number,1,2006-08-11T17:39:28Z,2011-11-11T09:55:10Z,zenbu-cc,,ElementarySchool
1007770,Awapuni School (Palmerston North),State Co-Ed Primary School,http://www.awapuni-primary.school.nz,"18 Rochester Street, Awapuni, Palmerston North",06 358 1735,,NZ,175.588081,-40.37248,number,1,2006-08-11T17:39:28Z,2013-04-12T15:09:14Z,zenbu,,ElementarySchool
1007784,Awhitu District School,"State Co-Ed Primary, Intermediate School",http://awhitu.school.nz,"Matakawau Road, Matakawau, Waiuku",09 235 1005,,NZ,174.61641,-37.112997,manual,1,2006-08-11T17:39:29Z,2007-12-23T12:57:40Z,burgla,,ElementarySchool MiddleSchool
1007791,Bailey Road School,"State Co-Ed Primary, Intermediate School",http://www.baileyroad.school.nz,"19 Bailey Road, Mt Wellington, Auckland",09 579 4619,,NZ,174.827259,-36.909276,number,1,2006-08-11T17:39:29Z,2013-04-12T14:56:58Z,zenbu,,ElementarySchool MiddleSchool
1007798,Bainesse School,"State Co-Ed Primary, Intermediate School",http://www.bainesse-school.com,"Cnr Bainesse Road & S H 56, Bainesse, Manawatu",06 329 6856,,NZ,175.377159,-40.408448,manual,1,2006-08-11T17:39:29Z,2007-12-16T14:19:15Z,burgla,,ElementarySchool MiddleSchool
1007805,Bairds Mainfreight Primary School,State Co-Ed Primary School,,"Edward Avenue, Otara, Auckland",09 274 8271,,NZ,174.867207,-36.959563,manual,1,2006-08-11T17:39:29Z,2013-04-12T14:56:58Z,zenbu,,ElementarySchool
1007812,Balaclava School,State Co-Ed Primary School,http://www.balaclava.school.nz/,"2 Mercer Street, Balaclava, Dunedin",03 488 4667,,NZ,170.466552,-45.888882,number,1,2006-08-11T17:39:29Z,2013-04-12T15:09:14Z,zenbu,,ElementarySchool
1007819,Balclutha School,"State Co-Ed Primary, Intermediate School",,"Lanark Street, Balclutha",03 418 1009,,NZ,169.742514,-46.240437,manual,1,2006-08-11T17:39:29Z,2007-10-04T12:00:58Z,burgla,,ElementarySchool MiddleSchool
1007826,Balfour School,State Co-Ed Primary School,,"131 Queen Street, Balfour",03 201 6042,,NZ,168.585316,-45.84226,Address,1,2006-08-11T17:39:29Z,2013-04-12T14:56:58Z,zenbu,,ElementarySchool
1007833,Ballance School,"State Co-Ed Primary, Intermediate School",,"15 Post Office Road, Ballance, Manawatu",06 376 7826,,NZ,175.799443,-40.401405,Address,1,2006-08-11T17:39:29Z,2007-10-27T18:56:47Z,burgla,,ElementarySchool MiddleSchool
1007847,Balmoral Seventh-Day Adventist School,"Balmoral SDA School is a state integrated U3, decile 5 full-primary school with a special Christian character",http://www.balmoralsda.school.nz,"10 Wiremu Street, Balmoral, Auckland",09 638 7903,,NZ,174.745742,-36.887783,manual,1,2006-08-11T17:39:29Z,2013-04-10T22:42:30Z,zenbu,,ElementarySchool MiddleSchool
1007854,Balmoral School,"State Co-Ed Primary, Intermediate School",http://www.balmoral.school.nz/,"19 Brixton Road, Mt Eden, Auckland",09 638 7960,,NZ,174.746184,-36.885148,manual,1,2006-08-11T17:39:30Z,2013-04-10T22:42:48Z,zenbu,,ElementarySchool MiddleSchool
1007861,Bamford School,"State Co-Ed Primary, Intermediate School",,"Gould Crescent, Woolston, Christchurch",03 982 0206,,NZ,172.687719,-43.55396,manual,1,2006-08-11T17:39:30Z,2013-04-12T14:56:58Z,zenbu,,ElementarySchool MiddleSchool
1007868,Banks Avenue School,State Co-Ed Primary School,http://www.banksave.school.nz,"Banks Avenue, Shirley, Christchurch",03 385 4163,,NZ,172.667881,-43.512969,manual,1,2006-08-11T17:39:30Z,2013-04-12T14:56:58Z,zenbu,,ElementarySchool
1007875,Bankwood School,State Co-Ed Primary School,http://www.bankwood.school.nz,"152 Bankwood Road, Fairfield, Hamilton",07 855 7763,,NZ,175.27606,-37.754988,number,1,2006-08-11T17:39:30Z,2007-01-23T12:49:02Z,zenbu,,ElementarySchool
1007889,Barrytown School,"State Co-Ed Primary, Intermediate School",,"Cnr S H 6 & Cargills Road, Barrytown",(03) 731 1824,,NZ,171.325886,-42.244229,manual,1,2006-08-11T17:39:30Z,2010-01-08T20:48:17Z,burgla,,ElementarySchool MiddleSchool
1007896,Barton Rural School,"State Co-Ed Primary, Intermediate School",,"462 Fairview Road, Timaru",03 688 4709,,NZ,171.171285,-44.410199,Address,1,2006-08-11T17:39:30Z,2013-04-12T14:50:55Z,zenbu,,ElementarySchool MiddleSchool
1007903,Baverstock Oaks School,"State Co-Ed Primary, Intermediate School",http://www.baverstock.school.nz,"21 Baverstock Road, Flat Bush, Auckland",(09) 278 6741,,NZ,174.913434,-36.955748,Address,1,2006-08-11T17:39:30Z,2009-05-09T02:14:28Z,Gremlin,,ElementarySchool MiddleSchool
1007924,Bayfield School,State Co-Ed Primary School,http://www.bayfield.school.nz,"2-12 Clifton Road, Herne Bay, Auckland",09 376 5703,,NZ,174.731213,-36.847019,number,1,2006-08-11T17:39:30Z,2007-01-23T13:20:55Z,zenbu,,ElementarySchool
1007931,Bayswater School,State Co-Ed Primary School,http://www.bayswater.school.nz,"Bayswater Avenue, Bayswater, Auckland",(09) 445 6226,,NZ,174.788082,-36.809577,manual,1,2006-08-11T17:39:31Z,2013-04-12T14:55:06Z,zenbu,,ElementarySchool
1007938,Bayview School,State Co-Ed Primary School,http://www.bayview.school.nz/,"60 Bayview Road, Glenfield, Auckland",09 444 2222,,NZ,174.706446,-36.77212,manual,1,2006-08-11T17:39:31Z,2013-04-12T14:56:58Z,zenbu,,ElementarySchool
1007945,Beach Haven School,State Co-Ed Primary School,http://www.beachhaven.school.nz/,"Tramway Road, Beach Haven, Auckland",09 483 7615,,NZ,174.690793,-36.794045,manual,1,2006-08-11T17:39:31Z,2007-08-31T01:01:27Z,JDHnz,,ElementarySchool
1007952,Beachlands School,"State Co-Ed Primary, Intermediate School",http://www.beachlands.school.nz,"18 Bell Road, Beachlands, Auckland",09 536 6757,,NZ,175.000171,-36.885055,number,1,2006-08-11T17:39:31Z,2013-04-12T14:56:58Z,zenbu,,ElementarySchool MiddleSchool
1007959,Beaconsfield School,"State Co-Ed Primary, Intermediate School",,"Guscott Road, Timaru",03 686 4819,,NZ,171.129956,-44.435266,manual,1,2006-08-11T17:39:31Z,2007-10-08T17:34:18Z,The-Organist,,ElementarySchool MiddleSchool
1007966,Beckenham School,"State Co-Ed Primary, Intermediate School",http://www.beckenham.school.nz,"71 Sandwich Road, Beckenham, Christchurch",03 337 1404,,NZ,172.644973,-43.563044,number,1,2006-08-11T17:39:31Z,2013-04-12T15:10:53Z,zenbu,,ElementarySchool MiddleSchool
1007973,Belfast School,"State Co-Ed Primary, Intermediate School",http://www.belfastschool.co.nz,"Main North Road, Belfast, Christchurch",03 323 8849,,NZ,172.627949,-43.453885,manual,1,2006-08-11T17:39:31Z,2011-10-05T01:13:04Z,zenbu-cc,,ElementarySchool MiddleSchool
1007980,Bell Block School,"State Co-Ed Primary, Intermediate School",http://www.bellblock.school.nz,"Devon Road, Bell Block, New Plymouth",06 755 0838,,NZ,174.145135,-39.035686,manual,1,2006-08-11T17:39:31Z,2013-04-12T14:56:58Z,zenbu,,ElementarySchool MiddleSchool
1007987,Bellevue School (Newlands),State Co-Ed Primary School,,"Bancroft Terrace, Newlands, Wellington",04 478 7037,,NZ,174.825445,-41.225518,manual,1,2006-08-11T17:39:31Z,2007-11-04T16:56:01Z,burgla,,ElementarySchool
1007994,Bellevue School (Tauranga),State Co-Ed Primary School,http://www.bellevue.school.nz,"Princess Road, Otumoetai, Tauranga",07 576 5916,,NZ,176.126525,-37.678603,manual,1,2006-08-11T17:39:31Z,2007-04-25T17:46:33Z,burgla,,ElementarySchool
1008001,Belmont Christian Academy,"State Integrated Co-Ed Primary, Intermediate School",http://www.belmontacademy.school.nz,"357 South Road, Hawera",06 278 4210,,NZ,174.25839,-39.58897,number,1,2006-08-11T17:39:31Z,2011-11-11T09:55:10Z,zenbu-cc,,ElementarySchool MiddleSchool
1008015,Belmont School (Auckland),State Co-Ed Primary School,http://www.belmont.school.nz/main.asp,"3 a Harrison Avenue, Belmont, Auckland",09 445 6605,,NZ,174.791145,-36.805829,number,1,2006-08-11T17:39:32Z,2007-01-23T13:20:56Z,zenbu,,ElementarySchool
1008022,Belmont School (Lower Hutt),State Co-Ed Primary School,http://www.belmont-lowerhutt.school.nz,"Western Hutt Road, Belmont, Lower Hutt",04 565 0306,,NZ,174.928029,-41.191315,manual,1,2006-08-11T17:39:32Z,2011-11-28T00:09:40Z,zenbu-cc,,ElementarySchool
1008029,Benneydale School,"State Co-Ed Primary, Intermediate School",,"Mine Road, Benneydale",07 878 4829,,NZ,175.368683,-38.520546,manual,1,2006-08-11T17:39:32Z,2013-04-12T14:56:58Z,zenbu,,ElementarySchool MiddleSchool
1008036,Berhampore School,State Co-Ed Primary School,http://www.berhampore.school.nz,"105 Britomart Street, Berhampore, Wellington",04 389 9391,,NZ,174.773336,-41.320746,number,1,2006-08-11T17:39:32Z,2011-11-11T09:55:10Z,zenbu-cc,,ElementarySchool
1008050,Waipa Christian School,"State Integrated Co-Ed Primary, Intermediate School",http://www.waipachristian.school.nz,"320 Swarbrick Drive, Te Awamutu",07 871 4520,,NZ,175.330734,-38.020017,number,1,2006-08-11T17:39:32Z,2013-04-12T15:10:52Z,zenbu,,ElementarySchool MiddleSchool
1008057,Bethlehem College,"State Integrated Co-Ed Primary, Intermediate, Secondary School",http://www.beth.school.nz,"Elder Lane, Bethlehem, Tauranga",07 576 6769,,NZ,176.112867,-37.704808,street,0,2006-08-11T17:39:32Z,2007-01-17T15:25:52Z,zenbu,,ElementarySchool MiddleSchool
1008064,Bethlehem School,State Co-Ed Primary School,http://www.bethlehemschool.ac.nz/,"66 Carmichael Road, Bethlehem, Tauranga",07 576 4726,,NZ,176.108129,-37.690506,number,1,2006-08-11T17:39:32Z,2011-12-04T11:57:20Z,zenbu-cc,,ElementarySchool
1008071,Birchville School,State Co-Ed Primary School,http://birchville.school.nz,"16 Gemstone Drive, Birchville, Upper Hutt",04 526 7128,,NZ,175.100171,-41.092109,Address,1,2006-08-11T17:39:32Z,2013-04-12T14:56:58Z,zenbu,,ElementarySchool
1008078,Birchwood School,State Co-Ed Primary School,http://www.birchwood.school.nz,"Durham Street, Stoke, Nelson",03 547 3028,,NZ,173.224214,-41.307536,manual,1,2006-08-11T17:39:32Z,2007-07-01T14:07:39Z,tetley44,,ElementarySchool
1008085,Birdwood School,"State Co-Ed Primary, Intermediate School",,"Karepo Crescent, Ranui, Auckland",09 833 8479,,NZ,174.601647,-36.856188,manual,1,2006-08-11T17:39:33Z,2013-04-12T14:56:58Z,zenbu,,ElementarySchool MiddleSchool
1008099,Birkdale North School,State Co-Ed Primary School,http://www.birkdalenorth.school.nz/,"213 Birkdale Road, Birkdale, North Shore City",09 483 8674,,NZ,174.700991,-36.791084,number,1,2006-08-11T17:39:33Z,2013-04-12T15:09:14Z,zenbu,,ElementarySchool
1008106,Birkdale Primary School,State Co-Ed Primary School,http://www.birkdaleprimary.school.nz,"Salisbury Road, Birkdale, Auckland",09 483 7767,,NZ,174.703227,-36.800316,manual,1,2006-08-11T17:39:33Z,2013-04-12T14:51:10Z,zenbu,,ElementarySchool
1008120,Birkenhead School,State Co-Ed Primary School,http://www.birkenheadprimary.school.nz/,"77 Mokoia Road, Birkenhead, Auckland",(09) 480 7365,,NZ,174.722738,-36.811424,manual,1,2006-08-11T17:39:33Z,2007-08-19T00:16:18Z,JDHnz,,ElementarySchool
1008127,Bishop Edward Gaines Catholic School,"State Integrated Co-Ed Primary, Intermediate School",,"1 Mossop Road, Tokoroa",07 886 8021,,NZ,175.876073,-38.223329,Address,1,2006-08-11T17:39:33Z,2013-04-12T14:56:58Z,zenbu,,ElementarySchool MiddleSchool
1008141,Bishopdale School,State Co-Ed Primary School,http://www.bishopdale.school.nz,"465 Greers Road, Bishopdale, Christchurch",03 352 9354,,NZ,172.596196,-43.487338,number,1,2006-08-11T17:39:33Z,2013-04-12T15:09:14Z,zenbu,,ElementarySchool
1008148,Blackmount School,"State Co-Ed Primary, Intermediate School",http://www.blackmount.school.nz/,"Old Monowai Rd, Southland",03 225 5315,,NZ,167.675829,-45.806068,manual,1,2006-08-11T17:39:33Z,2007-01-17T21:53:55Z,GaryMck,,ElementarySchool MiddleSchool
1008155,Blaketown School,"State Co-Ed Primary, Intermediate School",http://www.blaketown.school.nz,"90 Blake Street, Greymouth",03 768 9096,,NZ,171.193582,-42.451806,Address,1,2006-08-11T17:39:33Z,2013-04-12T14:52:52Z,zenbu,,ElementarySchool MiddleSchool
1008162,Bledisloe School,State Co-Ed Primary School,,"Meanee Road, Taradale, Napier",06 844 2131,,NZ,176.851296,-39.537514,manual,1,2006-08-11T17:39:34Z,2007-11-11T18:24:47Z,burgla,,ElementarySchool
1008169,Blenheim School,State Co-Ed Primary School,,"42 Alfred Street, Blenheim",03 577 5542,,NZ,173.957022,-41.510789,number,1,2006-08-11T17:39:34Z,2013-04-12T14:56:58Z,zenbu,,ElementarySchool
1008190,Blockhouse Bay School,State Co-Ed Primary School,http://www.blockhousebay.school.nz/,"584 Blockhouse Bay Road, Blockhouse Bay, Auckland",09 627 9940,,NZ,174.702009,-36.924881,number,1,2006-08-11T17:39:34Z,2011-11-11T09:55:09Z,zenbu-cc,,ElementarySchool
1008211,Bluestone School,"State Co-Ed Primary, Intermediate School",http://www.bluestone.school.nz,"46 Raymond Street, Timaru",03 684 3706,,NZ,171.226436,-44.397912,Address,1,2006-08-11T17:39:34Z,2013-04-12T15:10:53Z,zenbu,,ElementarySchool MiddleSchool
1008218,Bluff Community School,"State Co-Ed Primary, Intermediate School",,"39 Bradshaw St, Bluff",03 212 8523,,NZ,168.343904,-46.602528,Address,1,2006-08-11T17:39:34Z,2007-10-03T23:36:05Z,burgla,,ElementarySchool MiddleSchool
1008232,Bombay School,"State Co-Ed Primary, Intermediate School",http://www.bombay.school.nz,"Paparata Road, Bombay, Auckland",09 236 0850,,NZ,174.995159,-37.185848,manual,1,2006-08-11T17:39:34Z,2007-05-13T16:59:22Z,burgla,,ElementarySchool MiddleSchool
1008239,Botany Downs School,State Co-Ed Primary School,http://www.botanydowns.school.nz,"Mirrabooka Avenue, Howick, Auckland",09 534 9848,,NZ,174.922428,-36.912225,manual,1,2006-08-11T17:39:34Z,2007-12-08T20:39:17Z,burgla,,ElementarySchool
1008253,Boulcott School,State Co-Ed Primary School,http://www.boulcott.school.nz,"Boulcott Street, Lower Hutt",04 566 3058,,NZ,174.921656,-41.201422,manual,1,2006-08-11T17:39:35Z,2007-08-24T15:03:35Z,vrod_rider,,ElementarySchool
1008260,Bradford School,State Co-Ed Primary School,,"42 a Bradford Street, Bradford, Dunedin",03 453 6254,,NZ,170.467692,-45.876358,number,1,2006-08-11T17:39:35Z,2013-04-12T14:56:59Z,zenbu,,ElementarySchool
1008295,Bridge Pa School,"State Co-Ed Primary, Intermediate School",,"Maraekakaho Rd, Hastings",06 879 9364,,NZ,176.75405,-39.649108,manual,1,2006-08-11T17:39:35Z,2008-06-08T13:44:01Z,burgla,,ElementarySchool MiddleSchool
1008302,Big Rock Primary School,"State Co-Ed Primary, Intermediate School",,"2 Bath Street, Brighton, Dunedin",03 481 1781,,NZ,170.330509,-45.949133,number,1,2006-08-11T17:39:35Z,2013-04-12T14:54:50Z,zenbu,,ElementarySchool MiddleSchool
1008309,Brightwater School,State Co-Ed Primary School,http://www.brightwater.school.nz/,"106 Ellis Street, Brightwater, Nelson",03 542 3666,,NZ,173.112932,-41.378906,number,1,2006-08-11T17:39:35Z,2013-04-12T14:56:59Z,zenbu,,ElementarySchool
1008316,Broad Bay School,"State Co-Ed Primary, Intermediate School",http://www.broadbay.school.nz,"Roebuck Rise, Broad Bay, Dunedin",03 478 0706,,NZ,170.624317,-45.847441,manual,1,2006-08-11T17:39:35Z,2007-04-30T21:32:57Z,GaryMck,,ElementarySchool MiddleSchool
1008323,Broadfield School,"State Co-Ed Primary, Intermediate School",,"Cnr Shands & Robinsons Roads, Selwyn",03 325 2440,,NZ,172.467188,-43.603512,manual,1,2006-08-11T17:39:36Z,2009-11-14T10:06:45Z,FantomFan,,ElementarySchool MiddleSchool
1008337,Broadlands School,State Co-Ed Primary School,http://www.broadlands.school.nz,"2986 Broadlands Road, Reporoa",07 333 8576,,NZ,176.332509,-38.511339,number,1,2006-08-11T17:39:36Z,2011-11-11T09:55:09Z,zenbu-cc,,ElementarySchool
1008344,Broadwood Area School,"State Co-Ed Primary, Intermediate, Secondary School",http://home.xtra.co.nz/hosts/broadwood/index.htm,"1041 Broadwood Road, Broadwood, Hokianga",09 409 5878,,NZ,173.395409,-35.260865,Address,1,2006-08-11T17:39:36Z,2007-11-18T22:03:29Z,burgla,,School ElementarySchool MiddleSchool HighSchool
1008351,Brockville School,"State Co-Ed Primary, Intermediate School",,"Brockville Road, Dunedin",03 476 3717,,NZ,170.459758,-45.867317,manual,1,2006-08-11T17:39:36Z,2007-04-30T21:23:50Z,GaryMck,,ElementarySchool MiddleSchool
1008358,Bromley School,State Co-Ed Primary School,http://www.bromley.school.nz,"33 Keighleys Road, Christchurch",03 389 7716,,NZ,172.687038,-43.536642,number,1,2006-08-11T17:39:36Z,2013-04-12T14:56:59Z,zenbu,,ElementarySchool
1008365,Brookby School,"State Co-Ed Primary, Intermediate School",,"West Road, Clevedon, Auckland",09 530 8569,,NZ,174.994955,-36.98742,manual,1,2006-08-11T17:39:36Z,2013-04-12T14:56:59Z,zenbu,,ElementarySchool MiddleSchool
1008372,Brookfield School,State Co-Ed Primary School,http://www.brookfield.school.nz/,"20 Miller Road, Brookfield, Tauranga",07 576 9433,,NZ,176.133177,-37.690579,manual,1,2006-08-11T17:39:36Z,2007-04-25T18:05:53Z,burgla,,ElementarySchool
1008379,Brooklyn School (Motueka),"State Co-Ed Primary, Intermediate School",http://www.brooklyn.school.nz,"Umukuri Road, Brooklyn, Tasman",03 528 9330,,NZ,172.972559,-41.095354,manual,1,2006-08-11T17:39:36Z,2007-05-12T14:40:18Z,burgla,,ElementarySchool MiddleSchool
1008386,Brooklyn School (Wellington),"State Co-Ed Primary, Intermediate School",http://www.brooklynprimary.school.nz,"Washington Avenue, Brooklyn, Wellington",04 389 6758,,NZ,174.766388,-41.306166,manual,1,2006-08-11T17:39:36Z,2007-02-28T12:27:11Z,garyt,,ElementarySchool MiddleSchool
1008393,Broomfield School,"State Co-Ed Primary, Intermediate School",http://www.broomfield.school.nz/,"Mt Brown Road, Amberley",03 314 9444,,NZ,172.685755,-43.11733,manual,1,2006-08-11T17:39:36Z,2007-04-30T18:45:58Z,garyt,,ElementarySchool MiddleSchool
1008400,Browns Bay School,State Co-Ed Primary School,http://www.brownsbay.school.nz/,"Masterton Road, Browns Bay, Auckland",09 479 4301,,NZ,174.746025,-36.721764,manual,1,2006-08-11T17:39:37Z,2007-12-22T09:17:24Z,Chairman,,ElementarySchool
1008414,Brunswick School,"State Co-Ed Primary, Intermediate School",http://www.wwc.school.nz,"15 Campbell Road, Brunswick, Wanganui",06 342 1841,,NZ,175.024304,-39.843462,Address,1,2006-08-11T17:39:37Z,2007-12-15T18:21:22Z,burgla,,ElementarySchool MiddleSchool
1008421,Brydone School,State Co-Ed Primary School,,"Brydone-Glencoe Road, Southland",03 206 6698,,NZ,168.803515,-46.256025,manual,1,2006-08-11T17:39:37Z,2007-10-03T11:10:48Z,burgla,,ElementarySchool
1008428,Buckland School,"State Co-Ed Primary, Intermediate School",,"72 George Crescent, Buckland, Pukekohe",09 238 9419,,NZ,174.92614,-37.228264,number,1,2006-08-11T17:39:37Z,2007-01-23T12:49:25Z,zenbu,,ElementarySchool MiddleSchool
1008442,Bucklands Beach Primary School,State Co-Ed Primary School,http://www.bbps.school.nz,"107 Clovelly Road, Bucklands Beach, Auckland",09 534 6543,,NZ,174.908045,-36.865574,number,1,2006-08-11T17:39:37Z,2013-04-12T14:56:59Z,zenbu,,ElementarySchool
1008456,Bulls School,"State Co-Ed Primary, Intermediate School",http://www.bulls.school.nz,"Bridge Street, Bulls",06 322 1184,,NZ,175.383961,-40.168519,manual,1,2006-08-11T17:39:37Z,2013-04-12T14:56:59Z,zenbu,,ElementarySchool MiddleSchool
1008463,Bunnythorpe School,"State Co-Ed Primary, Intermediate School",,"Baring Street, Bunnythorpe, Via Palmerston North",06 329 2777,,NZ,175.633031,-40.28248,manual,1,2006-08-11T17:39:37Z,2013-04-12T14:56:59Z,zenbu,,ElementarySchool MiddleSchool
1008470,Burnham School,"State Co-Ed Primary, Intermediate School",http://www.geocities.com/burnhamschool,"Chaytor Avenue, Burnham",03 347 6851,,NZ,172.30814,-43.61688,manual,1,2006-08-11T17:39:37Z,2013-04-12T14:56:59Z,zenbu,,ElementarySchool MiddleSchool
1008484,Burnside Primary School,State Co-Ed Primary School,http://www.burnsideprimary.school.nz,"96 Memorial Avenue, Burnside, Christchurch",03 351 9407,,NZ,172.581649,-43.512901,number,1,2006-08-11T17:39:38Z,2013-04-12T15:09:34Z,zenbu,,ElementarySchool
1008491,Burwood School,State Co-Ed Primary School,http://www.burwood.school.nz,"255 New Brighton Road, Burwood, Christchurch",03 383 4842,,NZ,172.685142,-43.500079,number,1,2006-08-11T17:39:38Z,2013-04-12T14:56:59Z,zenbu,,ElementarySchool
1008498,Calton Hill School,State Co-Ed Primary School,http://www.caltonhillschool.orcon.net.nz,"38 Riselaw Road, Calton Hill, Dunedin",03 487 7465,,NZ,170.467317,-45.898283,number,1,2006-08-11T17:39:38Z,2011-11-11T09:55:09Z,zenbu-cc,,ElementarySchool
1008505,Calvin Christian School,"Private Co-Ed Primary, Intermediate School",,"22 Rosella Road, Mangere East, Auckland",09 276 7272,,NZ,174.835717,-36.959114,number,1,2006-08-11T17:39:38Z,2011-11-11T09:55:09Z,zenbu-cc,,ElementarySchool
1008512,Camberley School,State Co-Ed Primary School,,"627 Kiwi Street, Hastings",06 876 9285,,NZ,176.818121,-39.626163,Address,1,2006-08-11T17:39:38Z,2007-11-11T13:13:40Z,burgla,,ElementarySchool
1008519,Cambridge East School,State Co-Ed Primary School,http://www.cambridgeschools.co.nz,"Williams Street, Cambridge",07 827 7651,,NZ,175.471069,-37.884253,manual,1,2006-08-11T17:39:38Z,2013-04-12T14:56:59Z,zenbu,,ElementarySchool
1008547,Cambridge School,State Co-Ed Primary School,http://www.cambridgeprimary.co.nz,"Wilson Street, Cambridge",07 827 5316,,NZ,175.468408,-37.895337,manual,1,2006-08-11T17:39:38Z,2007-11-11T13:19:05Z,burgla,,ElementarySchool
1008554,Campbells Bay School,State Co-Ed Primary School,http://www.campbellsbay.school.nz,"Aberdeen Road, Castor Bay, Auckland",09 410 7444,,NZ,174.759457,-36.754857,manual,1,2006-08-11T17:39:39Z,2007-08-24T16:18:20Z,kiwipath,,ElementarySchool
1008568,Cannington School,"State Co-Ed Primary, Intermediate School",,"Cannington Road, Mackenzie",03 614 3723,,NZ,170.937341,-44.357902,manual,1,2006-08-11T17:39:39Z,2007-11-07T23:26:03Z,garyt,,ElementarySchool MiddleSchool
1008575,Cannons Creek School,State Co-Ed Primary School,http://sites.tki.org.nz/cannonscreek,"Warspite Avenue, Porirua East",04 237 7426,,NZ,174.864482,-41.140391,manual,1,2006-08-11T17:39:39Z,2013-04-12T14:50:09Z,zenbu,,ElementarySchool
1008582,Aidanfield Christian School,"State Integrated Co-Ed Primary, Intermediate, Secondary School",http://www.aidanfield.school.nz/,"2 Nash Road, Halswell, Christchurch",03 338 8153,,NZ,172.570807,-43.563803,manual,1,2006-08-11T17:39:39Z,2013-04-12T14:56:56Z,zenbu,,ElementarySchool MiddleSchool
1008589,Canvastown School,"State Co-Ed Primary, Intermediate School",http://www.geocities.com/canvastown,"Main Road, Canvastown",03 574 2103,,NZ,173.667573,-41.28882,manual,1,2006-08-11T17:39:39Z,2008-12-14T20:39:56Z,burgla,,ElementarySchool MiddleSchool
1008596,Cardinal McKeefry School,"State Integrated Co-Ed Primary, Intermediate Catholic School",http://www.cardinalmckeefry.school.nz/,"66 Albemarle Road, Wilton, Wellington",04 475 3262,,NZ,174.757129,-41.276154,manual,1,2006-08-11T17:39:39Z,2013-04-12T14:57:00Z,zenbu,,ElementarySchool MiddleSchool
1008603,Carew Peel Forest School,State Co-Ed Primary School,http://www.carewpeelforest.school.nz,"Ealing-Montalto Road, Carew, Ashburton",03 696 3556,,NZ,171.356667,-43.959337,manual,1,2006-08-11T17:39:39Z,2007-10-31T20:00:24Z,burgla,,ElementarySchool
1008610,Carey College,"Private Co-Ed Primary, Intermediate, Secondary School",http://www.careycollege.com,"21 Domain Road, Panmure, Auckland",09 570 5873,,NZ,174.854474,-36.901092,number,1,2006-08-11T17:39:39Z,2013-04-12T15:09:13Z,zenbu,,ElementarySchool
1008617,Cargill Open Plan School,State Co-Ed Primary School,,"Grampian Street, Tokoroa",07 886 7973,,NZ,175.865879,-38.241652,manual,1,2006-08-11T17:39:39Z,2013-04-12T14:57:00Z,zenbu,,ElementarySchool
1008631,Carlton School,State Co-Ed Primary School,http://www.carlton.school.nz,"Carlton Avenue, Wanganui",06 345 0336,,NZ,175.030982,-39.935474,manual,1,2006-08-11T17:39:40Z,2007-10-07T12:18:19Z,burgla,,ElementarySchool
1008645,Carncot School,"Private Girls Primary, Intermediate School",http://www.carncot.school.nz,"263 Broadway Avenue, Palmerston North",06 353 2302,,NZ,175.621779,-40.349826,number,1,2006-08-11T17:39:40Z,2011-11-11T09:55:09Z,zenbu-cc,,ElementarySchool
1008652,Carterton School,"State Co-Ed Primary, Intermediate School",http://www.carterton.school.nz/,"Holloway Street, Carterton",06 379 4010,,NZ,175.529777,-41.026017,manual,1,2006-08-11T17:39:40Z,2013-04-12T14:57:00Z,zenbu,,ElementarySchool MiddleSchool
1008666,Cashmere Avenue School,State Co-Ed Primary School,http://www.cashmere-ave.school.nz,"110 Cashmere Avenue, Khandallah, Wellington",04 939 4700,,NZ,174.798077,-41.247794,number,1,2006-08-11T17:39:40Z,2013-04-12T14:57:00Z,zenbu,,ElementarySchool
1008680,Cashmere Primary School,"State Co-Ed Primary, Intermediate School",http://www.cashmereprimary.school.nz,"135 Hackthorne Road, Cashmere, Christchurch",03 332 6786,,NZ,172.63236,-43.576514,number,1,2006-08-11T17:39:40Z,2013-04-12T14:57:00Z,zenbu,,ElementarySchool MiddleSchool
1008687,Castlecliff School,State Co-Ed Primary School,http://www.castlecliff.school.nz,"Polson Street, Castlecliff, Wanganui",06 344 4537,,NZ,174.991715,-39.940212,manual,1,2006-08-11T17:39:40Z,2013-04-12T14:57:00Z,zenbu,,ElementarySchool
1008701,Caversham School,State Co-Ed Primary School,http://www.caversham.school.nz,"217 South Road, Caversham, Dunedin",03 455 8315,,NZ,170.484691,-45.895733,number,1,2006-08-11T17:39:41Z,2011-11-11T09:55:09Z,zenbu-cc,,ElementarySchool
1008708,Centennial Park School,"State Co-Ed Primary, Intermediate School",,"50 Te Kuiti Road, Te Kuiti",07 878 7709,,NZ,175.174049,-38.335882,Address,1,2006-08-11T17:39:41Z,2013-04-12T14:52:59Z,zenbu,,ElementarySchool MiddleSchool
1008722,Central New Brighton School,"State Co-Ed Primary, Intermediate School",http://www.cnb.school.nz,"Seaview Road, New Brighton, Christchurch",03 388 9098,,NZ,172.724487,-43.508083,manual,1,2006-08-11T17:39:41Z,2013-04-12T15:09:13Z,zenbu,,ElementarySchool MiddleSchool
1008729,Central Normal School,State Co-Ed Primary School,http://www.centralnormal.school.nz,"201 Featherston Street, Palmerston North",06 359 3337,,NZ,175.602925,-40.351257,number,1,2006-08-11T17:39:41Z,2013-04-12T15:10:23Z,zenbu,,ElementarySchool
1008743,Central School,State Co-Ed Primary School,,"Lemon Street, New Plymouth",06 758 3240,,NZ,174.079796,-39.059075,manual,1,2006-08-11T17:39:41Z,2013-04-12T15:09:13Z,zenbu,,ElementarySchool
1008757,Central Southland Rural Primary School,"State Co-Ed Primary, Intermediate School",,"Boundary Road, Drummond, Southland",03 236 2886,,NZ,168.152876,-46.147492,manual,0,2006-08-11T17:39:41Z,2007-10-04T00:30:55Z,burgla,,ElementarySchool MiddleSchool
1008764,Central Takaka School,State Co-Ed Primary School,http://www.centraltakaka.school.nz,"Central Takaka Road, Tasman",03 525 9200,,NZ,172.820719,-40.879536,manual,1,2006-08-11T17:39:41Z,2013-04-12T14:57:00Z,zenbu,,ElementarySchool
1008778,Chapel Downs School,State Co-Ed Primary School,,"Cnr Chapel & Dawson Roads, East Tamaki, Auckland",09 274 8002,,NZ,174.90133,-36.979891,manual,1,2006-08-11T17:39:42Z,2007-04-21T12:07:00Z,burgla,,ElementarySchool
1008785,Crofton Downs Primary School,State Co-Ed Primary School,http://www.croftondownsprimary.school.nz,"Chartwell Drive, Wellington",04 479 2429,,NZ,174.764194,-41.259348,manual,1,2006-08-11T17:39:42Z,2008-11-03T17:08:04Z,zenbu,,ElementarySchool
1008792,Chaucer School,State Co-Ed Primary School,,"Chaucer Place, Blockhouse Bay, Auckland",09 626 6699,,NZ,174.694757,-36.915026,manual,1,2006-08-11T17:39:42Z,2007-11-08T21:30:35Z,burgla,,ElementarySchool
1008799,Chelsea School,State Co-Ed Primary School,http://www.chelsea.school.nz,"Onetaunga Road, Birkenhead, Auckland",09 418 0082,,NZ,174.707894,-36.81571,manual,1,2006-08-11T17:39:42Z,2011-11-28T00:09:39Z,zenbu-cc,,ElementarySchool
1008806,Cheltenham School,"State Co-Ed Primary, Intermediate School",,"Cheltenham-Hunterville Rd, Manawatu",06 328 9775,,NZ,175.658244,-40.136349,manual,1,2006-08-11T17:39:42Z,2007-10-28T16:49:10Z,burgla,,ElementarySchool MiddleSchool
1008813,Chertsey School,State Co-Ed Primary School,,"83 High Street, Chertsey",03 302 2727,,NZ,171.936818,-43.804453,manual,1,2006-08-11T17:39:42Z,2009-02-26T13:47:24Z,zenbu,,ElementarySchool
1008820,Cheviot Area School,"State Co-Ed Primary, Intermediate, Secondary School",http://www.cheviot.school.nz/,"Hall Street, Cheviot",03 319 8787,,NZ,173.274044,-42.812486,manual,1,2006-08-11T17:39:42Z,2013-04-12T14:54:50Z,zenbu,,School ElementarySchool MiddleSchool HighSchool
1008834,Chilton St James School,"Private Girls Primary, Intermediate, Secondary School",http://www.chilton.school.nz,"124 Waterloo Road, Lower Hutt",04 566 4089,,NZ,174.913535,-41.210146,number,1,2006-08-11T17:39:42Z,2011-11-11T09:55:09Z,zenbu-cc,,ElementarySchool
1008848,Christ The King School (Burnside),"State Integrated Co-Ed Primary, Intermediate School",http://www.christtheking.school.nz,"92 Greers Road, Burnside, Christchurch",03 358 2708,,NZ,172.576752,-43.509071,number,1,2006-08-11T17:39:43Z,2011-10-05T01:12:49Z,zenbu-cc,,ElementarySchool MiddleSchool
1008855,Christ the King Catholic School Owairaka,"State Integrated Co-Ed Primary, Intermediate School",http://www.ctk.school.nz,"288 Richardson Road, Mt Roskill, Auckland",09 626 7123,,NZ,174.720945,-36.904344,number,1,2006-08-11T17:39:43Z,2010-12-02T10:52:49Z,zenbu,,ElementarySchool MiddleSchool
1008862,Christchurch Adventist School,"State Integrated Co-Ed Primary, Intermediate, Secondary School, SDA",http://www.cas.school.nz,"15 Grants Road, Papanui, Christchurch",03 352 9173,,NZ,172.611585,-43.499004,number,1,2006-08-11T17:39:43Z,2013-04-12T15:09:13Z,zenbu,,ElementarySchool MiddleSchool
1008876,Christchurch East School,"State Co-Ed Primary, Intermediate School",http://www.chcheast.school.nz/,"311 Gloucester Street, Christchurch",03 366 2440,,NZ,172.648304,-43.529692,number,1,2006-08-11T17:39:43Z,2013-04-12T14:57:00Z,zenbu,,ElementarySchool MiddleSchool
1008897,Christian Renewal School,"State Integrated Co-Ed Primary, Intermediate, Secondary School",http://www.crs.school.nz,"2 Tarewa Road, Whangarei",09 438 6471,,NZ,174.316513,-35.730373,number,1,2006-08-11T17:39:43Z,2013-04-12T14:57:00Z,zenbu,,ElementarySchool MiddleSchool
1008918,Churchill Park School,"State Co-Ed Primary, Intermediate School",http://www.churchillpark.school.nz,"Kinsale Ave, Glendowie, Auckland",09 575 8156,,NZ,174.871756,-36.853536,manual,1,2006-08-11T17:39:44Z,2013-04-12T14:49:30Z,zenbu,,ElementarySchool MiddleSchool
1008925,Churton Park School,State Co-Ed Primary School,http://churtonpark.school.nz,"90 Churton Drive, Johnsonville, Wellington",04 478 4282,,NZ,174.808346,-41.208471,number,1,2006-08-11T17:39:44Z,2011-11-11T09:55:08Z,zenbu-cc,,ElementarySchool
1008932,Churton School,State Co-Ed Primary School,,"Burmah Street, Aramoho, Wanganui",06 343 9406,,NZ,175.083371,-39.892081,manual,1,2006-08-11T17:39:44Z,2013-04-12T14:57:01Z,zenbu,,ElementarySchool
1008946,Clarkville School,"State Co-Ed Primary, Intermediate School",http://www.clarkville.school.nz/,"10 Heywards Rd, Clarkville, Waimakariri",03 327 8218,,NZ,172.623356,-43.405997,number,1,2006-08-11T17:39:44Z,2013-04-12T14:57:01Z,zenbu,,ElementarySchool MiddleSchool
1008953,Clayton Park School,"State Co-Ed Primary, Intermediate School",http://www.claytonpark.school.nz,"Coxhead Road, Manurewa, Auckland",09 267 0077,,NZ,174.892931,-37.034609,street,0,2006-08-11T17:39:44Z,2007-01-17T15:26:30Z,zenbu,,ElementarySchool MiddleSchool
1008960,Clendon Park School,State Co-Ed Primary Bilingual School,http://www.clendonpark.school.nz,"145 Rowandale Avenue, Manurewa, Auckland",09 267 6671,,NZ,174.870741,-37.01795,number,1,2006-08-11T17:39:44Z,2013-04-12T14:57:00Z,zenbu,,ElementarySchool
1008974,Clevedon School,"State Co-Ed Primary, Intermediate School",http://www.clevedonschool.co.nz,"13 North Road, Clevedon, Auckland",09 292 8654,,NZ,175.038358,-36.989995,number,1,2006-08-11T17:39:44Z,2011-11-11T09:55:08Z,zenbu-cc,,ElementarySchool MiddleSchool
1008981,Clifton School (Bulls),"State Co-Ed Primary, Intermediate School",http://www.cliftonschool.co.nz,"Clifton Street, Bulls",06 322 1544,,NZ,175.378076,-40.179328,manual,1,2006-08-11T17:39:44Z,2007-05-12T17:03:47Z,burgla,,ElementarySchool MiddleSchool
1008988,Clifton Terrace Model School,"State Co-Ed Primary, Intermediate School",http://www.ctms.school.nz/index.htm,"15 Clifton Terrace, Kelburn, Wellington",04 472 7519,,NZ,174.77294,-41.283231,number,1,2006-08-11T17:39:45Z,2013-04-12T14:57:00Z,zenbu,,ElementarySchool MiddleSchool
1008995,Clifton Terrace School,State Co-Ed Primary School,http://www.cliftontce.school.nz,"888 Atawhai Drive, Nelson",03 545 0532,,NZ,173.322401,-41.224364,number,1,2006-08-11T17:39:45Z,2013-04-12T14:57:00Z,zenbu,,ElementarySchool
1009002,Clinton School,"State Co-Ed Primary, Intermediate School",http://www.clinton.school.nz,"Halsey Street, Clinton",03 415 7151,,NZ,169.380276,-46.200898,manual,1,2006-08-11T17:39:45Z,2007-05-11T20:02:48Z,burgla,,ElementarySchool MiddleSchool
1009009,Clive School,State Co-Ed Primary School,http://www.clive.school.nz/,"57 School Road, Clive, Hastings",06 870 0538,,NZ,176.921908,-39.585905,manual,1,2006-08-11T17:39:45Z,2007-11-11T12:54:21Z,burgla,,ElementarySchool
1009023,Cloverlea School,State Co-Ed Primary School,http://www.cloverlea.school.nz,"55 Herbert Avenue, Cloverlea, Palmerston North",06 357 3955,,NZ,175.585079,-40.345639,number,1,2006-08-11T17:39:45Z,2011-12-04T11:57:19Z,zenbu-cc,,ElementarySchool
1009030,Clutha Valley School,"State Co-Ed Primary, Intermediate School",,"2155 Clutha Valley Road, Clydevale, Otago",03 415 9105,,NZ,169.552203,-46.094641,Address,1,2006-08-11T17:39:45Z,2007-10-04T23:32:58Z,burgla,,ElementarySchool MiddleSchool
1009037,Clyde Quay School,"State Co-Ed Primary, Intermediate School",http://www.clydequay.school.nz,"27 Elizabeth Street, Mt Victoria, Wellington",(04) 385 0900,,NZ,174.7845,-41.296017,number,1,2006-08-11T17:39:45Z,2013-04-12T14:57:01Z,zenbu,,ElementarySchool MiddleSchool
1009044,Clyde School,"State Co-Ed Primary, Intermediate School",,"Blyth Street, Clyde",03 449 2761,,NZ,169.319744,-45.191451,manual,1,2006-08-11T17:39:45Z,2006-12-06T22:32:22Z,GaryMck,,ElementarySchool MiddleSchool
1009051,Coastal Taranaki School,"State Co-Ed Primary, Intermediate, Secondary School",,"Carthew Street, Okato, Taranaki",06 752 4022,,NZ,173.879124,-39.190431,street,0,2006-08-11T17:39:46Z,2013-04-12T14:57:01Z,zenbu,,School ElementarySchool MiddleSchool HighSchool
1009058,Coatesville School,State Co-Ed Primary School,http://www.coatesville.school.nz/,"24 Mahoenui Valley Road, Albany, Auckland",09 415 9218,,NZ,174.6448,-36.717066,Address,1,2006-08-11T17:39:46Z,2007-11-11T13:22:39Z,burgla,,ElementarySchool
1009065,Cobden School,"State Co-Ed Primary, Intermediate School",,"Fox Street, Cobden, Greymouth",03 768 7465,,NZ,171.210519,-42.440153,manual,1,2006-08-11T17:39:46Z,2013-04-12T14:57:01Z,zenbu,,ElementarySchool MiddleSchool
1009079,Cobham School,State Co-Ed Primary School,http://www.cobhamsch.schoolzone.net.nz,"Lytton Road, Gisborne",06 867 3864,,NZ,177.994362,-38.660285,manual,1,2006-08-11T17:39:46Z,2013-04-12T14:57:01Z,zenbu,,ElementarySchool
1009086,Cockle Bay School,State Co-Ed Primary School,http://www.cocklebay.school.nz,"Sandspit Road, Howick, Auckland",09 534 8333,,NZ,174.939326,-36.905036,manual,1,2006-08-11T17:39:46Z,2013-04-12T14:57:01Z,zenbu,,ElementarySchool
1009093,Coley Street School,"State Co-Ed Primary, Intermediate School",http://www.coleystreet.school.nz,"Coley Street, Foxton",06 363 8117,,NZ,175.292734,-40.475779,manual,1,2006-08-11T17:39:46Z,2007-05-12T17:40:13Z,burgla,,ElementarySchool MiddleSchool
1009100,College Street Normal School,State Co-Ed Primary School,http://www.csn.school.nz/,"402 College Street, Palmerston North",06 358 1092,,NZ,175.619814,-40.360623,number,1,2006-08-11T17:39:46Z,2013-04-12T14:49:29Z,zenbu,,ElementarySchool
1009107,College Street School,State Co-Ed Primary School,http://www.collegest.school.nz,"25 College Street, Caversham, Dunedin",03 487 7241,,NZ,170.478992,-45.897169,number,1,2006-08-11T17:39:46Z,2013-04-12T14:57:01Z,zenbu,,ElementarySchool
1009114,Collingwood Area School,"State Co-Ed Primary, Intermediate, Secondary School",,"Lewis Street, Collingwood",03 524 8125,,NZ,172.680209,-40.681533,manual,1,2006-08-11T17:39:46Z,2013-04-12T14:57:01Z,zenbu,,School ElementarySchool MiddleSchool HighSchool
1009128,Colville School,"State Co-Ed Primary, Intermediate School",,"2391 Colville Road, Colville",07 866 6815,,NZ,175.472715,-36.628177,manual,1,2006-08-11T17:39:47Z,2007-09-25T19:04:59Z,burgla,,ElementarySchool MiddleSchool
1009135,Colwill School,"State Co-Ed Primary, Intermediate School",http://www.colwill.school.nz,"Kintara Drive, Massey, Auckland",09 833 6081,,NZ,174.633007,-36.834861,manual,1,2006-08-11T17:39:47Z,2013-04-12T15:09:12Z,zenbu,,ElementarySchool MiddleSchool
1009142,Colyton School,"State Co-Ed Primary, Intermediate School",http://www.colyton.school.nz,"421 Colyton Road, Manawatu",06 328 7877,,NZ,175.648145,-40.226776,Address,1,2006-08-11T17:39:47Z,2007-10-27T20:32:13Z,burgla,,ElementarySchool MiddleSchool
1009149,Concord School,State Co-Ed Primary School,http://www.concord.school.nz,"5 Thoreau Street, Concord, Dunedin",03 488 2204,,NZ,170.454594,-45.90389,Address,1,2006-08-11T17:39:47Z,2013-04-12T14:57:01Z,zenbu,,ElementarySchool
1009156,Conifer Grove School,"State Co-Ed Primary, Intermediate School",,"Evanda Crescent, Takanini, Auckland",09 299 7490,,NZ,174.912179,-37.049175,street,0,2006-08-11T17:39:47Z,2007-01-17T15:26:39Z,zenbu,,ElementarySchool MiddleSchool
1009163,Corinna School,"State Co-Ed Primary, Intermediate School",,"36 Kalingo Street, Porirua",04 235 9570,,NZ,174.881895,-41.133413,Address,1,2006-08-11T17:39:47Z,2013-04-12T14:57:01Z,zenbu,,ElementarySchool MiddleSchool
1009177,Cornerstone Christian School,"State Integrated Co-Ed Primary, Intermediate School",http://www.cornerstone.ac.nz,"119 Mihaere Drive, Palmerston North",06 356 7326,,NZ,175.645703,-40.333322,number,1,2006-08-11T17:39:47Z,2011-12-04T11:57:19Z,zenbu-cc,,ElementarySchool MiddleSchool
1009184,Cornwall Park School,State Co-Ed Primary School,http://www.cornwallpark.school.nz/,"193 Green Lane West, Greenlane, Auckland",09 524 6574,,NZ,174.788967,-36.892564,number,1,2006-08-11T17:39:47Z,2013-04-12T15:09:12Z,zenbu,,ElementarySchool
1009191,Coroglen School,"State Co-Ed Primary, Intermediate School",,"Rangihau Road, Coroglen",07 866 3850,,NZ,175.698343,-36.923856,manual,1,2006-08-11T17:39:47Z,2013-04-12T14:57:01Z,zenbu,,ElementarySchool MiddleSchool
1009198,Coromandel Area School,"State Co-Ed Primary, Intermediate, Secondary School",,"Woollams Avenue, Coromandel",07 866 8893,,NZ,175.499859,-36.758906,manual,1,2006-08-11T17:39:48Z,2013-04-12T14:57:01Z,zenbu,,School ElementarySchool MiddleSchool HighSchool
1009205,Coromandel Learning Centre,"Private Co-Ed Primary, Intermediate School",,"429 State Highway 25, R D 1, Coromandel",07 866 8117,,NZ,175.507193,-36.77108,manual,1,2006-08-11T17:39:48Z,2009-12-12T10:31:59Z,burgla,,ElementarySchool
1009212,Coromandel Rudolf Steiner School,"Private Co-Ed Primary, Intermediate School",http://www.rudolf-steiner-initiative-coromandel.webgallery.co.nz,"2628 Rings Road, Coromandel",07 866 8809,,NZ,175.503774,-36.739943,number,1,2006-08-11T17:39:48Z,2007-01-23T12:49:56Z,zenbu,,ElementarySchool
1009219,Saint Kentigern School For Girls College - Corran,"Private Girls Primary, Intermediate, Secondary School",http://corran.saintkentigern.com/,"514 Remuera Road, Remuera, Auckland",09 520 1400,,NZ,174.80538,-36.881031,number,1,2006-08-11T17:39:48Z,2011-12-04T11:57:19Z,zenbu-cc,,ElementarySchool
1009240,Cosgrove Primary School,State Co-Ed Primary School,http://www.cosgrove.school.nz/,"10 Cosgrave Road, Papakura, Auckland",09 298 8365,,NZ,174.957824,-37.054076,number,1,2006-08-11T17:39:48Z,2011-11-28T00:09:53Z,zenbu-cc,,ElementarySchool
1009247,Cotswold School,State Co-Ed Primary School,http://www.cotswold.school.nz,"50 Cotswold Avenue, Christchurch",03 359 8035,,NZ,172.586901,-43.482707,number,1,2006-08-11T17:39:48Z,2011-10-05T01:13:01Z,zenbu-cc,,ElementarySchool
1009261,Crawshaw School,"State Co-Ed Primary, Intermediate School.",,"Crawshaw Drive, Brymer, Hamilton",07 849 1565,,NZ,175.232298,-37.773683,manual,1,2006-08-11T17:39:48Z,2013-04-12T14:57:02Z,zenbu,,ElementarySchool MiddleSchool
1009275,Cromwell Primary School,State Co-Ed Primary School,http://www.cromprimary.school.nz,"Molyneux Avenue, Cromwell",03 445 0264,,NZ,169.204152,-45.045207,manual,1,2006-08-11T17:39:49Z,2013-04-12T14:57:02Z,zenbu,,ElementarySchool
1009282,Crownthorpe School,"Rural Full Primary Y1-8. Quality education in a safe environment. No town pressures, no town worries, no town dramas",http://www.schoolground.co.nz/crownthorpe,"Crownthorpe Road, Hastings",06 874 3758,,NZ,176.558983,-39.56944,manual,1,2006-08-11T17:39:49Z,2010-05-19T08:52:17Z,Crownthorpe_School,,ElementarySchool
1009296,Cust School,"State Co-Ed Primary, Intermediate School",http://www.cust.school.nz,"473 Earlys Road, Cust",03 312 5753,,NZ,172.381552,-43.312472,Address,1,2006-08-11T17:39:49Z,2007-04-30T18:20:40Z,garyt,,ElementarySchool MiddleSchool
1009303,Dacre School,"State Co-Ed Primary, Intermediate School",,"Edendale-Woodlands Road, Southland",03 231 3086,,NZ,168.609753,-46.315191,manual,1,2006-08-11T17:39:49Z,2006-12-14T19:16:21Z,GaryMck,,ElementarySchool MiddleSchool
1009310,Dairy Flat School,"State Co-Ed Primary, Intermediate School",http://www.dairyflat.school.nz,"1220 State Highway 17, Dairy Flat",09 415 9071,,NZ,174.639138,-36.667835,Address,1,2006-08-11T17:39:49Z,2008-11-03T17:31:05Z,zenbu,,ElementarySchool MiddleSchool
1009317,Dalefield School,"State Co-Ed Primary, Intermediate School",,"Dalefield Road, Carterton",06 379 7416,,NZ,175.477313,-41.025443,manual,1,2006-08-11T17:39:49Z,2013-04-12T14:57:00Z,zenbu,,ElementarySchool MiddleSchool
1009331,Dannevirke South School,"State Co-Ed Primary, Intermediate School",http://www.dannevirkesouth.school.nz,"Stairs Street, Dannevirke",06 374 8915,,NZ,176.091775,-40.208934,manual,1,2006-08-11T17:39:49Z,2013-04-12T15:06:39Z,zenbu,,ElementarySchool MiddleSchool
1009345,Darfield School,State Co-Ed Primary School,,"Ross Street, Darfield",03 318 8473,,NZ,172.10635,-43.49072,manual,1,2006-08-11T17:39:50Z,2013-04-12T14:57:02Z,zenbu,,ElementarySchool
1009366,Dargaville Primary School,State Co-Ed Primary School,http://dpsnz.orcon.net.nz,"Gordon St, Dargaville",09 439 7255,,NZ,173.866904,-35.939109,manual,1,2006-08-11T17:39:50Z,2007-04-03T15:31:03Z,Magaret,,ElementarySchool
1009373,David Henry School,State Co-Ed Primary School,http://www.davidhenry.schoolzone.net.nz,"Thompson Street, Tokoroa",07 886 5234,,NZ,175.854775,-38.227368,manual,1,2006-08-11T17:39:50Z,2007-11-16T10:41:14Z,burgla,,ElementarySchool
1009380,David Street School,State Co-Ed Primary School,http://davidstreet.ultranet.school.nz/Home/,"45 David Street, Morrinsville",07 889 7780,,NZ,175.523538,-37.650317,manual,1,2006-08-11T17:39:50Z,2010-02-03T08:35:54Z,zenbu,,ElementarySchool
1009387,Dawson School,State Co-Ed Primary School,,"Haumia Way, Otara, Auckland",09 274 5390,,NZ,174.892398,-36.973021,manual,1,2006-08-11T17:39:50Z,2013-04-12T15:09:13Z,zenbu,,ElementarySchool
1009401,Deanwell School,State Co-Ed Primary School,http://www.deanwell.school.nz/,"Deanwell Avenue, Melville, Hamilton",07 843 7069,,NZ,175.275578,-37.819972,manual,1,2006-08-11T17:39:50Z,2013-04-12T14:48:24Z,zenbu,,ElementarySchool
1009408,Destiny School,"Private Co-Ed Primary, Intermediate School",http://www.destinychurch.org.nz,"18 Allright Place, Mt Wellington, Auckland",09 570 7150,,NZ,174.848324,-36.91143,number,1,2006-08-11T17:39:50Z,2013-04-12T15:07:34Z,zenbu,,ElementarySchool
1009422,Devonport School,State Co-Ed Primary School,http://www.devonport.school.nz/,"Kerr Street, Devonport, Auckland",09 445 0183,,NZ,174.799647,-36.827905,manual,1,2006-08-11T17:39:51Z,2006-11-30T17:36:02Z,zenbu,,ElementarySchool
1009429,Diamond Harbour School,"State Co-Ed Primary, Intermediate School",http://www.diamondharbour.school.nz,"13 Hunters Road, Diamond Harbour, Diamond Harbour",03 329 4842,,NZ,172.726284,-43.630198,number,1,2006-08-11T17:39:51Z,2013-04-12T14:57:02Z,zenbu,,ElementarySchool MiddleSchool
1009436,Dilworth School,"Private Boys Primary, Intermediate, Secondary School, Boarding Facilities",http://www.dilworth.school.nz/,"2 Erin Street, Remuera, Auckland",09 523 1060,,NZ,174.780702,-36.879057,number,1,2006-08-11T17:39:51Z,2013-04-12T14:57:02Z,zenbu,,ElementarySchool
1009443,Dingwall Trust School,"Private Co-Ed Primary, Intermediate, Secondary School",,"8 Dingwall Place, Papatoetoe, South Auckland",09 278 3675,,NZ,174.859687,-36.963382,number,1,2006-08-11T17:39:51Z,2013-04-12T14:57:02Z,zenbu,,ElementarySchool
1009450,Diocesan School For Girls,"Private Girls Primary, Intermediate, Secondary School, Boarding Facilities",http://www.diocesan.school.nz,"Clyde Street, Epsom, Auckland",09 520 0221,,NZ,174.778619,-36.880118,manual,1,2006-08-11T17:39:51Z,2013-04-12T14:55:21Z,zenbu,,ElementarySchool
1009457,Dipton School,"State Co-Ed Primary, Intermediate School",,"James Street, Dipton",03 248 5208,,NZ,168.35152,-45.890419,manual,1,2006-08-11T17:39:51Z,2013-04-12T14:57:02Z,zenbu,,ElementarySchool MiddleSchool
1009464,Discovery One School,"State Co-Ed Primary, Intermediate School",http://www.discovery1.school.nz,"90 McMahon Drive, Halswell, Christchurch",03 365 4678,,NZ,172.566026,-43.562238,Address,1,2006-08-11T17:39:51Z,2011-12-01T21:48:24Z,zenbu,,ElementarySchool MiddleSchool
1009471,Discovery School,"State Co-Ed Primary, Intermediate School",http://www.discovery.school.nz,"Pullen Lane, Whitby, Paremata",04 234 7103,,NZ,174.88963,-41.110884,manual,1,2006-08-11T17:39:51Z,2013-04-12T15:05:48Z,zenbu,,ElementarySchool MiddleSchool
1009478,Dominion Road School,State Co-Ed Primary School,http://www.dominionrd.school.nz,"Quest Terrace, Mt Roskill, Auckland",09 621 0155,,NZ,174.743997,-36.904539,manual,1,2006-08-11T17:39:51Z,2013-04-12T14:57:02Z,zenbu,,ElementarySchool
1009485,Don Buck Primary School,"State Co-Ed Primary, Intermediate School",http://www.donbuck.school.nz/,"124 Don Buck Road, Massey, Auckland",09 833 6005,,NZ,174.609815,-36.851104,number,1,2006-08-11T17:39:52Z,2013-04-12T15:10:53Z,zenbu,,ElementarySchool MiddleSchool
1009492,Donovan Primary School,State Co-Ed Primary School,,"Drury Lane, Invercargill",03 215 9664,,NZ,168.34121,-46.378853,manual,1,2006-08-11T17:39:52Z,2006-12-14T20:06:11Z,GaryMck,,ElementarySchool
1009499,Dorie School,"State Co-Ed Primary, Intermediate School",http://www.ashburton.co.nz/education/dorie/,"103 Dorie School Road, Dorie, Rakaia",03 302 0862,,NZ,172.116578,-43.864724,Address,1,2006-08-11T17:39:52Z,2007-10-22T19:33:14Z,burgla,,ElementarySchool MiddleSchool
1009506,Douglas Park School,State Co-Ed Primary School,http://www.douglaspark.school.nz,"136 Cole Street, Masterton",06 370 0189,,NZ,175.646779,-40.945858,number,1,2006-08-11T17:39:52Z,2013-04-12T14:57:03Z,zenbu,,ElementarySchool
1009513,"Douglas School 1906 on the Forgotten World Highway SH43,","Ex State Co-Ed Primary, Intermediate School, Now a private home of Ray Angela Wilma Melita Earnshaw, & Upholsterers",,"1672 to 1682 Ohura Road, Stratford 18km from Stratford",06 762 7511,,NZ,174.467611,-39.304882,manual,0,2006-08-11T17:39:52Z,2011-09-27T22:23:52Z,Basenji,,ElementarySchool MiddleSchool
1009520,Dovedale School,"State Co-Ed Primary, Intermediate School",http://www.roadshow.org/schools/dovedale,"Dovedale Road, Tasman",03 543 3878,,NZ,172.894378,-41.287558,manual,1,2006-08-11T17:39:52Z,2013-04-12T14:57:03Z,zenbu,,ElementarySchool MiddleSchool
1009527,Drury Christian School,"Private Co-Ed Primary, Intermediate, Secondary School",,"13 Sutton Road, Drury, Auckland",09 294 7332,,NZ,174.949935,-37.096292,number,1,2006-08-11T17:39:52Z,2013-04-12T15:09:12Z,zenbu,,ElementarySchool
1009534,Drury School,"State Co-Ed Primary, Intermediate School",http://www.drury.school.nz/,"Youngs Crescent, Drury",09 294 8502,,NZ,174.95057,-37.098096,manual,1,2006-08-11T17:39:52Z,2007-11-07T20:09:12Z,burgla,,ElementarySchool MiddleSchool
1009548,Dunedin Rudolf Steiner School,"State Integrated Co-Ed Primary, Intermediate School",http://www.dunedin.steiner.school.nz,"1 Fern Road, North-East Valley, Dunedin",03 471 2163,,NZ,170.56604,-45.859326,number,1,2006-08-11T17:39:53Z,2013-04-12T15:07:34Z,zenbu,,ElementarySchool MiddleSchool
1009555,Dunsandel School,State Co-Ed Primary School,,"Irvines Road, Leeston",03 325 4079,,NZ,172.197443,-43.66746,manual,1,2006-08-11T17:39:53Z,2008-01-03T11:35:38Z,Kiwi_Moose,,ElementarySchool
1009569,Duntroon School,"State Co-Ed Primary, Intermediate School",http://www.duntroon.school.nz,"Livingstone St, Duntroon, Waitaki",03 431 2829,,NZ,170.685471,-44.855869,manual,1,2006-08-11T17:39:53Z,2013-04-12T14:57:02Z,zenbu,,ElementarySchool MiddleSchool
1009576,Durie Hill School,State Co-Ed Primary School,,"Portal Street, Durie Hill, Wanganui",06 345 5946,,NZ,175.073383,-39.938822,manual,1,2006-08-11T17:39:53Z,2007-10-07T12:30:16Z,burgla,,ElementarySchool
1009583,Duvauchelle School,State Co-Ed Primary School,,"School Lane, R D 1, Akaroa",03 304 5722,,NZ,172.931719,-43.749657,manual,1,2006-08-11T17:39:53Z,2013-04-12T14:50:55Z,zenbu,,ElementarySchool
1009590,Dyer Street School,State Co-Ed Primary School,http://www.dyerstreet.school.nz,"Dyer Street, Lower Hutt",04 567 8016,,NZ,174.93581,-41.2022,manual,1,2006-08-11T17:39:53Z,2007-09-08T23:28:12Z,vrod_rider,,ElementarySchool
1009597,East Gore School,State Co-Ed Primary School,,"Wentworth Street, Gore",03 208 5331,,NZ,168.960607,-46.091642,manual,1,2006-08-11T17:39:53Z,2013-04-12T14:57:03Z,zenbu,,ElementarySchool
1009611,East Taieri School,State Co-Ed Primary School,http://easttaieri.school.nz,"11 Cemetery Road, Mosgiel, Dunedin",03 489 6737,,NZ,170.346237,-45.889142,number,1,2006-08-11T17:39:53Z,2013-04-12T14:57:03Z,zenbu,,ElementarySchool
1009618,East Tamaki School,State Co-Ed Primary School,http://www.easttamaki.school.nz/,"Preston Road, East Tamaki, Manukau City",09 274 9246,,NZ,174.888203,-36.962726,manual,1,2006-08-11T17:39:54Z,2007-12-23T21:50:35Z,burgla,,ElementarySchool
1009625,Eastern Hutt School,State Co-Ed Primary School,http://www.easternhutt.school.nz,"Kings Crescent, Lower Hutt",04 566 0167,,NZ,174.912064,-41.208549,manual,1,2006-08-11T17:39:54Z,2007-08-24T15:08:37Z,vrod_rider,,ElementarySchool
1009632,Ebbett Park School,State Co-Ed Primary School,http://www.ebbettpark.school.nz,"Oliphant Road, Hastings",06 878 9599,,NZ,176.826705,-39.643611,manual,1,2006-08-11T17:39:54Z,2010-04-10T18:16:35Z,astrae,,ElementarySchool
1009646,Edendale School (Auckland),State Co-Ed Primary School,http://www.edendale.school.nz,"419 Sandringham Road, Sandringham, Auckland",09 846 6340,,NZ,174.736848,-36.887774,number,1,2006-08-11T17:39:54Z,2011-11-11T09:55:08Z,zenbu-cc,,ElementarySchool
1009653,Edendale School (Southland),State Co-Ed Primary School,http://www.edendaleps.school.nz,"24 Salford Street, Edendale",03 206 6959,,NZ,168.781906,-46.311391,number,1,2006-08-11T17:39:54Z,2011-12-04T11:57:18Z,zenbu-cc,,ElementarySchool
1009667,Edgecumbe School,"State Co-Ed Primary, Intermediate School",http://edgecumbe.school.nz,"College Road, Edgecumbe",07 304 9633,,NZ,176.827955,-37.969182,manual,1,2006-08-11T17:39:54Z,2007-10-14T12:12:55Z,burgla,,ElementarySchool MiddleSchool
1009681,Edmonton School,State Co-Ed Primary School,http://www.edmonton-primary.school.nz,"Edmonton Road &  School Rd, Te Atatu South, Auckland",09 838 9318,,NZ,174.642878,-36.865785,manual,1,2006-08-11T17:39:54Z,2007-11-11T13:34:12Z,burgla,,ElementarySchool
1009688,Edmund Hillary School,"State Co-Ed Primary, Intermediate School",,"Hunua Road, Papakura, Auckland",09 298 9132,,NZ,175.033337,-37.084004,street,0,2006-08-11T17:39:55Z,2007-01-17T15:26:58Z,zenbu,,ElementarySchool MiddleSchool
1009695,Egmont Village School,"State Co-Ed Primary, Intermediate School",,"1052 Junction Road, Egmont Village, Inglewood",06 752 2881,,NZ,174.145982,-39.146347,number,1,2006-08-11T17:39:55Z,2011-11-11T09:55:08Z,zenbu-cc,,ElementarySchool MiddleSchool
1009702,Eketahuna School,"State Co-Ed Primary, Intermediate School",http://www.eketahuna.school.nz,"Albert Street, Eketahuna",06 375 8191,,NZ,175.708568,-40.648423,manual,1,2006-08-11T17:39:55Z,2013-04-12T14:51:57Z,zenbu,,ElementarySchool MiddleSchool
1009709,Elgin School,State Co-Ed Primary School,http://www.elgin.schoolzone.net.nz,"2 Knox Street, Gisborne",06 867 5454,,NZ,177.993455,-38.655046,number,1,2006-08-11T17:39:55Z,2013-04-12T14:57:03Z,zenbu,,ElementarySchool
1009716,Elim Christian College,"State Integrated Co-Ed Primary, Intermediate, Secondary School",http://www.elim.school.nz,"159 Botany Road, Howick, Auckland",09 538 0368,,NZ,174.915855,-36.91383,number,1,2006-08-11T17:39:55Z,2013-04-12T14:50:55Z,zenbu,,ElementarySchool MiddleSchool
1009723,Ellerslie School,"State Co-Ed Primary, Intermediate School",http://www.ellerslie.school.nz,"12 Kalmia Street, Ellerslie, Auckland",09 579 5477,,NZ,174.806239,-36.898529,number,1,2006-08-11T17:39:55Z,2013-04-12T14:57:03Z,zenbu,,ElementarySchool MiddleSchool
1009737,Elm Park School,State Co-Ed Primary School,http://www.elmpark.school.nz,"46 Gossamer Drive, Pakuranga, Auckland",09 577 0070,,NZ,174.889893,-36.910324,number,1,2006-08-11T17:39:55Z,2013-04-12T14:57:03Z,zenbu,,ElementarySchool
1009744,Elmgrove School,State Co-Ed Primary School,http://www.elmgrove.school.nz,"74 Argyle Street, Mosgiel, Dunedin",03 489 6252,,NZ,170.34596,-45.87983,number,1,2006-08-11T17:39:55Z,2013-04-12T14:57:03Z,zenbu,,ElementarySchool
1009751,Elmwood Normal School,State Co-Ed Primary School,http://www.elmwood.school.nz,"Aikmans Road, Merivale, Christchurch",03 355 7192,,NZ,172.614956,-43.51374,manual,1,2006-08-11T17:39:55Z,2013-04-12T14:57:03Z,zenbu,,ElementarySchool
1009758,Elsthorpe School,"State Co-Ed Primary, Intermediate School",,"25 Kenderdine Road, Elsthorpe,  Hawkes Bay",06 858 4228,,NZ,176.813624,-39.914077,Address,1,2006-08-11T17:39:56Z,2008-06-08T13:23:06Z,burgla,,ElementarySchool MiddleSchool
1009765,Elstow-Waihou Combined School,"State Co-Ed Primary, Intermediate School",,"355 Bowler Road, Elstow",07 884 5802,,NZ,175.638186,-37.524141,manual,1,2006-08-11T17:39:56Z,2008-11-03T17:32:50Z,zenbu,,ElementarySchool MiddleSchool
1009772,Eltham School,"State Co-Ed Primary, Intermediate School",http://www.eltham.school.nz/,"69 Conway Road, Eltham",06 764 8099,,NZ,174.298977,-39.434425,Address,1,2006-08-11T17:39:56Z,2013-04-12T15:05:48Z,zenbu,,ElementarySchool MiddleSchool
1009779,Emmanuel Christian School,"State Integrated Co-Ed Primary, Intermediate School",http://www.emmanuelchristian.school.nz,"322A Sawyers Arms Road, Bishopdale, Christchurch",03 359 3595,,NZ,172.588168,-43.478748,number,1,2006-08-11T17:39:56Z,2013-04-12T15:09:12Z,zenbu,,ElementarySchool MiddleSchool
1009786,Enner Glynn School,State Co-Ed Primary School,http://www.ennerglynn.school.nz,"The Ridgeway, Stoke, Nelson",03 547 7480,,NZ,173.254099,-41.305726,manual,1,2006-08-11T17:39:56Z,2007-05-04T21:00:19Z,burgla,,ElementarySchool
1009800,Epsom Normal School,State Co-Ed Primary School,http://www.epsomnormalprimary.school.nz,"41 The Drive, Epsom, Auckland",09 630 5144,,NZ,174.770618,-36.890448,number,1,2006-08-11T17:39:56Z,2013-04-12T15:09:11Z,zenbu,,ElementarySchool
1009807,Epuni School,State Co-Ed Primary School,,"313 Waiwhetu Road, Fairfield, Lower Hutt",04 939 7702,,NZ,174.93362,-41.209248,Address,1,2006-08-11T17:39:56Z,2007-11-04T17:26:02Z,burgla,,ElementarySchool
1009814,Eskdale School,"State Co-Ed Primary, Intermediate School",,"324 Hill Road,Eskdale, Napier",06 836 6845,,NZ,176.852516,-39.403099,Address,1,2006-08-11T17:39:56Z,2007-10-12T13:08:21Z,burgla,,ElementarySchool MiddleSchool
1009828,Everglade School,State Co-Ed Primary School,http://www.everglade.co.nz/,"64 Everglade Drive, Manukau Central, Auckland",09 262 0244,,NZ,174.895369,-36.996921,number,1,2006-08-11T17:39:57Z,2013-04-12T14:49:03Z,zenbu,,ElementarySchool
1009835,Fairburn School,State Co-Ed Primary School,http://www.fairburn.school.nz,"10 Pukeora Street, Otahuhu, Auckland",09 270 1130,,NZ,174.849673,-36.948419,Address,1,2006-08-11T17:39:57Z,2007-11-11T17:41:07Z,burgla,,ElementarySchool
1009856,Fairfield Primary School,State Co-Ed Primary School,http://www.fairfieldprimary.school.nz,"Clarkin Road, Fairfield, Hamilton",07 855 6284,,NZ,175.283915,-37.763998,manual,1,2006-08-11T17:39:57Z,2013-04-12T14:55:38Z,zenbu,,ElementarySchool
1009863,Fairfield School (Dunedin),"State Co-Ed Primary, Intermediate School",http://www.fairfield.school.nz,"10 Sickels Street, Fairfield, Dunedin",03 488 2040,,NZ,170.391718,-45.900566,number,1,2006-08-11T17:39:57Z,2011-11-11T09:55:08Z,zenbu-cc,,ElementarySchool MiddleSchool
1009870,Fairfield School (Levin),"State Co-Ed Primary, Intermediate School",http://www.fairfieldlevin.school.nz,"89 Macarthur Street, Levin",06 368 5513,,NZ,175.304706,-40.619093,number,1,2006-08-11T17:39:57Z,2011-11-11T09:55:08Z,zenbu-cc,,ElementarySchool MiddleSchool
1009877,Fairhall School,"State Co-Ed Primary, Intermediate School",http://www.fairhall.school.nz,"New Renwick Road, Fairhall, Blenheim",03 577 8939,,NZ,173.896612,-41.530957,manual,1,2006-08-11T17:39:57Z,2007-02-28T20:27:28Z,craiglove,,ElementarySchool MiddleSchool
1009884,Fairhaven School,State Co-Ed Primary School,http://www.fairhaven.school.nz/,"120 Boucher Avenue, Te Puke",07 573 8243,,NZ,176.32103,-37.796352,number,1,2006-08-11T17:39:57Z,2013-04-12T14:55:38Z,zenbu,,ElementarySchool
1009898,Fairlie School,State Co-Ed Primary School,http://www.fairlie.school.nz,"21 School Road, Fairlie",03 685 8504,,NZ,170.824862,-44.099523,number,1,2006-08-11T17:39:58Z,2011-11-11T09:55:08Z,zenbu-cc,,ElementarySchool
1009905,Fairton School,State Co-Ed Primary School,http://www.fairton.school.nz,"14 Fairfield Road, Fairton, Ashburton",03 308 9205,,NZ,171.816135,-43.870321,manual,1,2006-08-11T17:39:58Z,2009-07-15T15:36:20Z,zenbu,,ElementarySchool
1009912,Faith Academy,"State Integrated Co-Ed Primary, Intermediate School",http://www.faithacademy.school.nz,"127 Springvale Road, Springvale, Wanganui",06 345 7737,,NZ,175.020859,-39.920078,Address,1,2006-08-11T17:39:58Z,2013-04-12T15:05:55Z,zenbu,,ElementarySchool MiddleSchool
1009926,Favona School,State Co-Ed Primary School,,"Wakefield Road, Mangere, Auckland",09 275 8449,,NZ,174.807324,-36.954449,manual,1,2006-08-11T17:39:58Z,2007-05-27T18:52:19Z,burgla,,ElementarySchool
1009933,Featherston School,"State Co-Ed Primary, Intermediate School",,"Cnr Lyons & Revans Streets, Featherston, South Wairarapa",06 308 9242,,NZ,175.326326,-41.118911,manual,1,2006-08-11T17:39:58Z,2007-05-12T20:04:38Z,burgla,,ElementarySchool MiddleSchool
1009961,Fendalton Open Air School,State Co-Ed Primary School,http://www.fendalton.school.nz,"168 Clyde Road, Christchurch",03 351 9788,,NZ,172.591055,-43.515347,number,1,2006-08-11T17:39:58Z,2013-04-12T14:57:03Z,zenbu,,ElementarySchool
1009968,Fenwick School,State Co-Ed Primary School,,"25 A Arun Street, Oamaru",03 434 8209,,NZ,170.962193,-45.105788,number,1,2006-08-11T17:39:59Z,2007-01-23T12:50:20Z,zenbu,,ElementarySchool
1009996,Fernlea School,State Co-Ed Primary School,,"Lees Grove, Wainuiomata, Lower Hutt",04 564 6066,,NZ,174.937212,-41.26359,manual,1,2006-08-11T17:39:59Z,2007-09-09T14:24:06Z,vrod_rider,,ElementarySchool
1010003,Fernridge School,State Co-Ed Primary School,http://www.fernridge.school.nz/,"264 Upper Plain Road, Masterton",06 378 6535,,NZ,175.615468,-40.934091,manual,1,2006-08-11T17:39:59Z,2009-07-15T15:37:18Z,zenbu,,ElementarySchool
1010010,Fernside School,"State Co-Ed Primary, Intermediate School",,"O'Roarkes Road, Fernside, Waimakariri",03 313 8608,,NZ,172.533696,-43.312212,manual,1,2006-08-11T17:39:59Z,2013-04-12T15:09:11Z,zenbu,,ElementarySchool MiddleSchool
1010017,Fernworth Primary School,State Co-Ed Primary School,,"288 Pomona Street, Invercargill",03 216 9659,,NZ,168.369838,-46.431172,number,1,2006-08-11T17:39:59Z,2013-04-12T15:09:11Z,zenbu,,ElementarySchool
1010024,Ficino School,"Private Co-Ed Primary, Intermediate School",http://www.ficino.school.nz,"27 Esplanade Road, Mt Eden, Auckland",09 623 3385,,NZ,174.759677,-36.873336,number,1,2006-08-11T17:39:59Z,2013-04-12T15:09:11Z,zenbu,,ElementarySchool
1010031,Finlayson Park School,State Co-Ed Primary Bilingual School,http://www.finlaysonpark.school.nz,"85 John Walker Drive, Manurewa, Auckland",09 266 5558,,NZ,174.872113,-37.031449,number,1,2006-08-11T17:39:59Z,2013-04-12T14:57:04Z,zenbu,,ElementarySchool
1010045,Firth School,State Co-Ed Primary School,http://www.firth.school.nz,"Station Road, Matamata",07 888 7396,,NZ,175.764642,-37.818006,manual,1,2006-08-11T17:40:00Z,2007-05-13T15:59:22Z,burgla,,ElementarySchool
1010052,Fitzroy School,State Co-Ed Primary School,,"Barriball Street, Fitzroy, New Plymouth",06 758 3084,,NZ,174.102252,-39.047969,manual,1,2006-08-11T17:40:00Z,2007-11-11T13:38:53Z,burgla,,ElementarySchool
1010059,Five Forks School,"State Co-Ed Primary, Intermediate School",,"Kakanui Valley Road, Waitaki",03 432 4110,,NZ,170.77052,-45.05027,manual,1,2006-08-11T17:40:00Z,2007-01-26T14:40:35Z,garyt,,ElementarySchool MiddleSchool
1010066,Flagswamp School,State Co-Ed Primary School,,"Palmerston-Waikouaiti Road, Flag Swamp",03 465 7296,,NZ,170.703228,-45.546004,manual,1,2006-08-11T17:40:00Z,2007-07-15T12:35:13Z,burgla,,ElementarySchool
1010073,Flanshaw Road School,State Co-Ed Primary School,http://www.flanshawroad.school.nz,"Flanshaw Road, Te Atatu South, Auckland",09 834 7224,,NZ,174.644991,-36.860918,manual,1,2006-08-11T17:40:00Z,2007-04-24T19:11:40Z,GadgetGeek,,ElementarySchool
1010080,Flat Bush Primary School,State Co-Ed Primary School,,"20 Flat Bush Road, Otara, Auckland",09 274 8279,,NZ,174.883479,-36.975357,number,1,2006-08-11T17:40:00Z,2013-04-12T14:57:04Z,zenbu,,ElementarySchool
1010094,Flaxmere Primary School,"State Co-Ed Primary, Intermediate School",http://www.flaxmere.school.nz,"20 Henderson Road, Flaxmere, Hastings",06 879 8210,,NZ,176.791674,-39.622154,number,1,2006-08-11T17:40:00Z,2013-04-12T14:53:46Z,zenbu,,ElementarySchool MiddleSchool
1010101,Flemington School (Waipukurau),"State Co-Ed Primary, Intermediate School",,"Rotohiwi Road, Central Hawkes Bay",06 855 4860,,NZ,176.444582,-40.15012,manual,1,2006-08-11T17:40:01Z,2007-05-06T14:06:57Z,burgla,,ElementarySchool MiddleSchool
1010115,Fordell School,"State Co-Ed Primary, Intermediate School",http://www.fordell.school.nz,"Budge Street, Fordell, Fordell",06 342 7828,,NZ,175.199087,-39.95938,manual,1,2006-08-11T17:40:01Z,2013-04-12T14:57:04Z,zenbu,,ElementarySchool MiddleSchool
1010122,Forest Lake School,State Co-Ed Primary Bilingual School.,,"Storey Avenue, Hamilton",07 849 2256,,NZ,175.255558,-37.770477,manual,1,2006-08-11T17:40:01Z,2009-10-28T11:49:50Z,pb12,,ElementarySchool
1010136,Forrest Hill School,State Co-Ed Primary School,http://www.forresthill.school.nz,"50 Forrest Hill Road, Forrest Hill, Auckland",09 410 8939,,NZ,174.748999,-36.773417,number,1,2006-08-11T17:40:01Z,2011-12-04T11:57:18Z,zenbu-cc,,ElementarySchool
1010143,Fox Glacier School,"State Co-Ed Primary, Intermediate School",,"Cook Flat Road, Fox Glacier",03 751 0816,,NZ,170.00865,-43.46281,manual,1,2006-08-11T17:40:01Z,2013-04-12T14:57:04Z,zenbu,,ElementarySchool MiddleSchool
1010150,Foxton Beach School,"State Co-Ed Primary, Intermediate School",http://www.foxtonbeach.school.nz,"Carthew Terrace, Foxton Beach",06 363 8331,,NZ,175.226129,-40.46134,manual,1,2006-08-11T17:40:01Z,2007-05-12T17:34:10Z,burgla,,ElementarySchool MiddleSchool
1010157,Foxton School,"State Co-Ed Primary, Intermediate School",,"Park Street, Foxton",06 363 8269,,NZ,175.282032,-40.469384,manual,1,2006-08-11T17:40:01Z,2007-05-12T17:36:05Z,burgla,,ElementarySchool MiddleSchool
1010171,Frankley School,State Co-Ed Primary School,,"Tukapa Street, New Plymouth",06 753 6436,,NZ,174.056064,-39.091067,manual,1,2006-08-11T17:40:02Z,2013-04-12T14:57:04Z,zenbu,,ElementarySchool
1010178,Frankton School,State Co-Ed Primary School,http://www.franktonschool.ac.nz,"Massey Street, Dinsdale, Hamilton",07 847 6726,,NZ,175.249121,-37.793609,manual,1,2006-08-11T17:40:02Z,2013-04-12T14:52:13Z,zenbu,,ElementarySchool
1010185,Franz Josef Glacier School,"State Co-Ed Primary, Intermediate School",,"40 State Highway 6, Franz Josef",03 752 0733,,NZ,170.102242,-43.410322,street,0,2006-08-11T17:40:02Z,2011-11-28T00:09:39Z,zenbu-cc,,ElementarySchool MiddleSchool
1010192,Fraser Crescent School,State Co-Ed Primary School,http://www.frasercres.school.nz,"Redwood Street, Upper Hutt",04 528 5412,,NZ,175.060272,-41.122588,manual,1,2006-08-11T17:40:02Z,2007-11-05T20:26:00Z,burgla,,ElementarySchool
1010199,Frasertown School,State Co-Ed Primary School,,"Russell Parade, Frasertown, Wairoa",06 838 8844,,NZ,177.404448,-38.9664,manual,1,2006-08-11T17:40:02Z,2013-04-12T14:57:04Z,zenbu,,ElementarySchool
1010213,Freeville School,"State Co-Ed Primary, Intermediate School",http://www.freeville.school.nz,"Sandy Avenue, North New Brighton, Christchurch 8009",03 388 9666,,NZ,172.707803,-43.497554,manual,1,2006-08-11T17:40:02Z,2013-04-12T14:57:04Z,zenbu,,ElementarySchool MiddleSchool
1010220,Freyberg Community School,State Co-Ed Primary School,,"60 Roberts Road, Te Atatu South, Auckland",09 838 9664,,NZ,174.651261,-36.871171,Address,1,2006-08-11T17:40:02Z,2013-04-12T14:57:04Z,zenbu,,ElementarySchool
1010234,Frimley School,State Co-Ed Primary School,http://www.frimley.school.nz,"Frimley Road, Hastings",06 878 8757,,NZ,176.83303,-39.627338,manual,1,2006-08-11T17:40:03Z,2007-11-11T13:10:23Z,burgla,,ElementarySchool
1010241,Fruitvale Road School,State Co-Ed Primary School,http://www.fruitvale.school.nz,"9 Croydon Road, New Lynn, Auckland",09 827 2752,,NZ,174.666502,-36.915862,manual,1,2006-08-11T17:40:03Z,2007-06-03T15:28:26Z,zenbu,,ElementarySchool
1010248,Galatea School,"State Co-Ed Primary, Intermediate School",http://www.galatea.school.nz,"Mangamate Road, Galatea R D 1, Murupara",07 366 4862,,NZ,176.741588,-38.410819,manual,1,2006-08-11T17:40:03Z,2007-05-13T13:58:02Z,burgla,,ElementarySchool MiddleSchool
1010262,Garston School,"State Co-Ed Primary, Intermediate School",,"Garston Kingston Highway 6, Garston",03 248 8802,,NZ,168.688191,-45.463795,manual,1,2006-08-11T17:40:03Z,2006-12-16T20:24:29Z,GaryMck,,ElementarySchool MiddleSchool
1010269,Gate Pa School,State Co-Ed Primary School,,"900 Cameron Road South, Gate Pa, Tauranga",07 578 5325,,NZ,176.146009,-37.710926,manual,1,2006-08-11T17:40:03Z,2007-09-15T19:31:53Z,burgla,,ElementarySchool
1010276,George Street Normal School,State Co-Ed Primary School,http://www.georgestreet.school.nz,"989 George Street, Dunedin",03 474 0825,,NZ,170.512548,-45.85774,Address,1,2006-08-11T17:40:03Z,2013-04-12T14:57:04Z,zenbu,,ElementarySchool
1010290,Geraldine Primary School,State Co-Ed Primary School,http://www.geraldineprimary.school.nz,"73 Wilson Street, Geraldine",03 693 8208,,NZ,171.238922,-44.096107,Address,1,2006-08-11T17:40:03Z,2013-04-12T14:57:04Z,zenbu,,ElementarySchool
1010297,Gilberthorpe School,State Co-Ed Primary School,http://www.gilberthorpe.school.nz,"163 Gilberthorpes Road, Hei Hei, Christchurch",03 349 7363,,NZ,172.520978,-43.529545,number,1,2006-08-11T17:40:04Z,2013-04-12T14:57:05Z,zenbu,,ElementarySchool
1010311,Gisborne Central School,State Co-Ed Primary School,http://www.gisbornecentral.school.nz,"Central Street, Whataupoko, Gisborne",06 867 5073,,NZ,178.030593,-38.655262,manual,1,2006-08-11T17:40:04Z,2007-11-25T08:19:57Z,burgla,,ElementarySchool
1010332,Gladstone Primary School,State Co-Ed Primary School,http://www.gladstone.school.nz,"8 Seaview Terrace, Mt Albert, Auckland",09 846 9744,,NZ,174.712807,-36.880226,number,1,2006-08-11T17:40:04Z,2009-10-23T10:00:39Z,zenbu,,ElementarySchool
1010339,Gladstone School (Masterton),"State Co-Ed Primary, Intermediate School",,"Martinborough-Masterton Road, Carterton",06 372 7601,,NZ,175.653459,-41.08014,manual,1,2006-08-11T17:40:04Z,2010-10-25T09:24:45Z,burgla,,ElementarySchool MiddleSchool
1010346,Glamorgan School,State Co-Ed Primary School,http://www.glamorgan.school.nz,"Glamorgan Drive, Torbay, Auckland",09 473 6453,,NZ,174.734958,-36.70298,manual,1,2006-08-11T17:40:04Z,2013-04-12T14:57:05Z,zenbu,,ElementarySchool
1010360,Glen Eden School,State Co-Ed Primary School,http://www.geps.school.nz,"3 Glenview Road, Glen Eden, Auckland",09 818 6686,,NZ,174.651907,-36.908153,number,1,2006-08-11T17:40:05Z,2011-11-11T09:55:07Z,zenbu-cc,,ElementarySchool
1010367,Glen Innes School,State Co-Ed Primary School,,"Eastview Road, Glen Innes, Auckland",09 528 3507,,NZ,174.856398,-36.873943,manual,1,2006-08-11T17:40:05Z,2007-11-08T20:20:13Z,burgla,,ElementarySchool
1010374,Glen Massey School,"State Co-Ed Primary, Intermediate School",http://glenmassey.nzl.org,"897 Waingaro Road, Glen Massey, Ngaruawahia",07 824 8423,,NZ,175.075875,-37.672812,number,1,2006-08-11T17:40:05Z,2006-09-01T11:53:17Z,zenbu,,ElementarySchool MiddleSchool
1010381,Glen Oroua School,"State Co-Ed Primary, Intermediate School",,"Sansons Road, Palmerston North",06 329 7859,,NZ,175.411685,-40.3311,manual,1,2006-08-11T17:40:05Z,2007-05-20T13:54:17Z,burgla,,ElementarySchool MiddleSchool
1010388,Glen Taylor School,"State Co-Ed Primary, Intermediate School",http://www.glentaylor.school.nz,"172 West Tamaki Road, Glendowie, Auckland",09 528 6325,,NZ,174.863992,-36.869865,number,1,2006-08-11T17:40:05Z,2011-12-04T11:57:18Z,zenbu-cc,,ElementarySchool MiddleSchool
1010395,Glenavon School,"State Co-Ed Primary, Intermediate School",http://www.glenavon.school.nz,"340 Blockhouse Bay Road, Blockhouse Bay, Auckland",09 828 7029,,NZ,174.702073,-36.910044,number,1,2006-08-11T17:40:05Z,2011-11-11T09:55:07Z,zenbu-cc,,ElementarySchool MiddleSchool
1010402,Glenavy School,"State Co-Ed Primary, Intermediate School",,"Ruane Street, Glenavy, Waimate",03 689 3856,,NZ,171.098778,-44.914842,manual,1,2006-08-11T17:40:05Z,2007-03-15T10:17:05Z,garyt,,ElementarySchool MiddleSchool
1010409,Glenbervie School,State Co-Ed Primary School,http://www.glenbervie.school.nz,Whangarei,09 437 5812,,NZ,174.346912,-35.675723,manual,1,2006-08-11T17:40:05Z,2007-10-11T01:23:33Z,burgla,,ElementarySchool
1010416,Glenbrae Primary School,State Co-Ed Primary School,,"105 Leybourne Circle, Glen Innes, Auckland",09 528 5025,,NZ,174.869735,-36.873586,Address,1,2006-08-11T17:40:05Z,2007-11-08T21:37:12Z,burgla,,ElementarySchool
1010423,Glenbrook School,"State Co-Ed Primary, Intermediate School",,"Glenbrook-Waiuku Road, Glenbrook, Waiuku",09 235 3888,,NZ,174.751169,-37.205265,manual,1,2006-08-11T17:40:05Z,2007-04-06T10:32:36Z,burgla,,ElementarySchool MiddleSchool
1010430,Glendene School,State Co-Ed Primary School,,"60 Barrys Road, Glendene, Auckland",09 838 8603,,NZ,174.654628,-36.886943,Address,1,2006-08-11T17:40:06Z,2013-04-12T14:57:05Z,zenbu,,ElementarySchool
1010444,Glendowie School,"State Co-Ed Primary, Intermediate School",http://www.glendowieprimary.school.nz/,"217 Riddell Road, Glendowie, Auckland",09 575 7374,,NZ,174.875946,-36.862824,number,1,2006-08-11T17:40:06Z,2011-11-11T09:55:07Z,zenbu-cc,,ElementarySchool MiddleSchool
1010472,Glenfield Primary School,State Co-Ed Primary School,http://www.glenfield.school.nz,"101 Chivalry Road, Glenfield, Auckland",09 441 8730,,NZ,174.728635,-36.779742,number,1,2006-08-11T17:40:06Z,2013-04-12T14:57:05Z,zenbu,,ElementarySchool
1010479,Glenham School,State Co-Ed Primary School,,"Glenham School Road, Southland",03 206 4982,,NZ,168.849035,-46.401222,street,0,2006-08-11T17:40:06Z,2007-01-17T15:27:36Z,zenbu,,ElementarySchool
1010486,Glenholme School,State Co-Ed Primary School,http://www.glenholme.school.nz,"149 Ranolf Street, Rotorua",07 348 1489,,NZ,176.246834,-38.149253,number,1,2006-08-11T17:40:06Z,2013-04-12T15:09:12Z,zenbu,,ElementarySchool
1010493,Gleniti School,"State Co-Ed Primary, Intermediate School",http://www.gleniti.school.nz,"22 Heath Street, Timaru",03 686 0082,,NZ,171.193522,-44.38295,number,1,2006-08-11T17:40:07Z,2013-04-12T14:57:05Z,zenbu,,ElementarySchool MiddleSchool
1010500,Glenmoor School,State Co-Ed Primary School,http://www.glenmoor.school.nz,"96 Philpotts Road, Christchurch",03 385 3575,,NZ,172.636004,-43.492428,number,1,2006-08-11T17:40:07Z,2011-10-05T01:12:49Z,zenbu-cc,,ElementarySchool
1010507,Glenorchy School,"State Co-Ed Primary, Intermediate School",,"Oban Street, Glenorchy",(03) 442 9900,,NZ,168.38788,-44.850507,manual,1,2006-08-11T17:40:07Z,2013-04-12T14:57:05Z,zenbu,,ElementarySchool MiddleSchool
1010514,Glentunnel School,State Co-Ed Primary School,http://www.chch.school.nz/glentunnel,"Homebush Road, Glentunnel",03 318 2717,,NZ,171.932505,-43.481706,manual,1,2006-08-11T17:40:07Z,2013-04-12T14:52:13Z,zenbu,,ElementarySchool
1010521,Glenview School (Hamilton),State Co-Ed Primary School,http://www.glenview.school.nz/,"Bruce Avenue, Glenview, Hamilton",07 843 5598,,NZ,175.290728,-37.815988,manual,1,2006-08-11T17:40:07Z,2007-12-09T11:45:20Z,burgla,,ElementarySchool
1010528,Glenview School (Porirua East),State Co-Ed Primary School Years 1 - 6,http://www.glenviewschoolporirua.blogspot.com/,"106 Bedford Street, Porirua East",04 237 7123,,NZ,174.866903,-41.146962,Address,1,2006-08-11T17:40:07Z,2010-10-23T23:11:12Z,glenviewschool,,ElementarySchool
1010535,Gloriavale Christian Community School,"Private Co-Ed Primary, Intermediate, Secondary School",,"189 Heaphy Road, Lake Haupiri, Grey District",03 738 0265,,NZ,171.700293,-42.602029,number,1,2006-08-11T17:40:07Z,2011-12-04T11:57:17Z,zenbu-cc,,ElementarySchool
1010549,Goldfields School (Cromwell),State Co-Ed Primary School,http://www.goldfields.school.nz,"Gilling Place, Cromwell",03 445 0326,,NZ,169.18646,-45.043585,manual,1,2006-08-11T17:40:07Z,2008-09-27T19:08:05Z,GaryMck,,ElementarySchool
1010563,Gonville School,State Co-Ed Primary School,http://www.gonville.school.nz,"Gonville Avenue, Wanganui",06 345 7194,,NZ,175.029738,-39.943387,manual,1,2006-08-11T17:40:08Z,2013-04-12T14:57:05Z,zenbu,,ElementarySchool
1010570,Good Shepherd School (Balmoral),State Integrated Co-Ed Primary School,http://www.goodshepherd.school.nz,"30 Telford Avenue, Balmoral, Auckland",09 620 4962,,NZ,174.742823,-36.891537,number,1,2006-08-11T17:40:08Z,2013-04-12T15:09:11Z,zenbu,,ElementarySchool
1010577,Goodwood School,State Co-Ed Primary School,http://www.goodwood.school.nz,"517 Fencourt Road, Cambridge",07 827 6817,,NZ,175.472065,-37.84241,number,1,2006-08-11T17:40:08Z,2013-04-12T14:57:05Z,zenbu,,ElementarySchool
1010584,Gordonton School,"State Co-Ed Primary, Intermediate School",http://www.gordontonschool.co.nz,"Woodlands Road, Gordonton, Hamilton",07 824 3602,,NZ,175.307926,-37.666514,manual,1,2006-08-11T17:40:08Z,2013-04-12T14:57:05Z,zenbu,,ElementarySchool MiddleSchool
1010598,Gore Main School,State Co-Ed Primary School,http://www.goremain.school.nz/,"Ardwick Street, Gore",03 208 7615,,NZ,168.940571,-46.09554,manual,1,2006-08-11T17:40:08Z,2007-10-03T10:20:55Z,burgla,,ElementarySchool
1010605,Gorge Road School,"State Co-Ed Primary, Intermediate School",http://www.gorgeroad.school.nz,"Cnr Factory Road & Southern Scenic Route, Southland",(03) 239 5763,,NZ,168.701162,-46.474635,manual,1,2006-08-11T17:40:08Z,2006-12-08T17:44:11Z,zenbu,,ElementarySchool MiddleSchool
1010612,Governors Bay School,"State Co-Ed Primary, Intermediate School",http://governorsbay.school.nz,"Jetty Road, Governors Bay",03 329 9854,,NZ,172.6499,-43.623961,manual,1,2006-08-11T17:40:08Z,2006-12-13T15:50:32Z,garyt,,ElementarySchool MiddleSchool
1010619,Gracefield School,State Co-Ed Primary School,http://www.gracefield.school.nz/,"Bell Road, Lower Hutt",04 569 5422,,NZ,174.915133,-41.231928,manual,1,2006-08-11T17:40:09Z,2011-11-28T00:09:40Z,zenbu-cc,,ElementarySchool
1010626,Granity School,"State Co-Ed Primary, Intermediate School",,"83 Torea Street, Granity, Via Westport",03 782 8109,,NZ,171.852901,-41.629988,number,1,2006-08-11T17:40:09Z,2013-04-12T15:09:11Z,zenbu,,ElementarySchool MiddleSchool
1010633,Grantlea Downs School,"State Co-Ed Primary, Intermediate School",http://www.grantleadowns.school.nz,"65 Grants Road, Timaru",03 684 7706,,NZ,171.235901,-44.374809,number,1,2006-08-11T17:40:09Z,2013-04-12T15:09:11Z,zenbu,,ElementarySchool MiddleSchool
1010640,Grants Braes School,State Co-Ed Primary School,http://www.grantsbraes.school.nz,"137 Belford Street, Waverley, Dunedin",03 454 4717,,NZ,170.533116,-45.884351,number,1,2006-08-11T17:40:09Z,2013-04-12T14:57:05Z,zenbu,,ElementarySchool
1010654,Green Bay Primary School,"State Co-Ed Primary, Intermediate School",http://www.greenbay.school.nz,"Godley Road, Green Bay, Auckland",09 817 6666,,NZ,174.672875,-36.931524,manual,1,2006-08-11T17:40:09Z,2007-12-20T12:20:38Z,jag,,ElementarySchool MiddleSchool
1010661,Green Island School,"State Co-Ed Primary, Intermediate School",http://www.greenisland.school.nz,"3 Howden Street, Green Island, Dunedin",03 488 2314,,NZ,170.429094,-45.903725,number,1,2006-08-11T17:40:09Z,2011-11-11T09:55:07Z,zenbu-cc,,ElementarySchool MiddleSchool
1010668,Greenacres School,State Co-Ed Primary School,http://www.greenacres.school.nz,"Raroa Terrace, Tawa, Wellington",04 232 6445,,NZ,174.838824,-41.164396,manual,1,2006-08-11T17:40:09Z,2007-10-21T13:29:55Z,burgla,,ElementarySchool
1010675,Greendale School,State Co-Ed Primary School,,"Greendale Road, Greendale, Christchurch",03 318 8436,,NZ,172.084222,-43.572914,manual,1,2006-08-11T17:40:09Z,2013-04-12T14:57:05Z,zenbu,,ElementarySchool
1010682,Greenhithe School,State Co-Ed Primary School,http://www.greenhithe.school.nz,"Isobel Road, Greenhithe, Auckland",09 413 9838,,NZ,174.676073,-36.773972,manual,1,2006-08-11T17:40:09Z,2013-04-12T14:57:05Z,zenbu,,ElementarySchool
1010696,Greenmeadows School,State Co-Ed Primary School,http://www.gms.school.nz,"Osier Road, Greenmeadows, Napier",06 844 7024,,NZ,176.859235,-39.529781,manual,1,2006-08-11T17:40:10Z,2007-11-11T14:20:44Z,burgla,,ElementarySchool
1010703,Greenpark School (Christchurch),"State Co-Ed Primary, Intermediate School",,"Greenpark Road, Selwyn",03 325 5720,,NZ,172.502437,-43.685249,manual,1,2006-08-11T17:40:10Z,2007-08-14T19:24:14Z,burgla,,ElementarySchool MiddleSchool
1010710,Greenpark School (Tauranga),State Co-Ed Primary School,http://www.greenparkschool.co.nz,"13 Lumsden Street, Greerton, Tauranga",07 541 0606,,NZ,176.127651,-37.732436,number,1,2006-08-11T17:40:10Z,2011-11-11T09:55:07Z,zenbu-cc,,ElementarySchool
1010717,Greerton Village School,State Co-Ed Primary School,http://www.greerton.school.nz,"Greerton Road, Greerton, Tauranga",07 541 1639,,NZ,176.136889,-37.724313,street,0,2006-08-11T17:40:10Z,2007-01-17T15:27:45Z,zenbu,,ElementarySchool
1010724,Greta Valley School,"State Co-Ed Primary, Intermediate School",http://www.gretavalley.school.nz,"Motunau Beach Road, Hurunui",03 314 3800,,NZ,172.977923,-42.965044,manual,1,2006-08-11T17:40:10Z,2013-04-12T14:57:05Z,zenbu,,ElementarySchool MiddleSchool
1010731,Grey Lynn School,State Co-Ed Primary School,http://www.greylynn.school.nz/,"44 Surrey Crescent, Grey Lynn, Auckland",09 376 3255,,NZ,174.735441,-36.862737,number,1,2006-08-11T17:40:10Z,2013-04-12T15:09:10Z,zenbu,,ElementarySchool
1010745,Greymouth Main School,"State Co-Ed Primary, Intermediate School",,"Joyce Crescent, Greymouth",03 768 5411,,NZ,171.197323,-42.46643,manual,1,2006-08-11T17:40:10Z,2007-09-30T08:33:40Z,burgla,,ElementarySchool MiddleSchool
1010752,Greytown School,"State Co-Ed Primary, Intermediate School",http://www.greytown.school.nz,"76 East Street, Greytown",06 304 9007,,NZ,175.460533,-41.082004,manual,1,2006-08-11T17:40:11Z,2008-10-02T11:56:48Z,HiggyRSQ,,ElementarySchool MiddleSchool
1010759,Grovetown School,State Co-Ed Primary School,,"Vickerman Street, Grovetown, Blenheim",03 578 6250,,NZ,173.968935,-41.48148,manual,1,2006-08-11T17:40:11Z,2013-04-12T14:57:05Z,zenbu,,ElementarySchool
1010766,Gulf Harbour School,"State Co-Ed Primary, Intermediate School",http://www.ghs.school.nz,"65 Alec Craig Way, Whangaparaoa, Hibiscus Coast",09 428 0202,,NZ,174.8,-36.609892,number,1,2006-08-11T17:40:11Z,2007-01-23T12:50:55Z,zenbu,,ElementarySchool MiddleSchool
1010773,Haast School,"State Co-Ed Primary, Intermediate School",,"Jacksons Bay Road, Haast, South Westland",03 750 0853,,NZ,168.85722,-43.94105,manual,1,2006-08-11T17:40:11Z,2013-04-12T14:54:08Z,zenbu,,ElementarySchool MiddleSchool
1010780,Hadlow Preparatory School,"State Integrated Co-Ed Primary, Intermediate School",http://www.hadlow.school.nz,"68 High Street, Masterton",06 378 6597,,NZ,175.641403,-40.959367,Address,1,2006-08-11T17:40:11Z,2013-04-12T15:09:10Z,zenbu,,ElementarySchool MiddleSchool
1010794,Halcombe Primary School,"State Co-Ed Primary, Intermediate School",,"Monteith Street, Halcombe,",06 328 8845,,NZ,175.497601,-40.146897,manual,1,2006-08-11T17:40:11Z,2007-10-28T17:35:12Z,burgla,,ElementarySchool MiddleSchool
1010801,Halfmoon Bay School,"State Co-Ed Primary, Intermediate School",,"Ayr Street, Halfmoon Bay, Stewart Island",03 219 1179,,NZ,168.127754,-46.899429,manual,1,2006-08-11T17:40:11Z,2007-12-22T19:41:20Z,The-Organist,,ElementarySchool MiddleSchool
1010808,Halfway Bush School,State Co-Ed Primary School,http://www.hwb.school.nz,"54 Ashmore Street, Dunedin",03 476 3207,,NZ,170.465657,-45.857001,Address,1,2006-08-11T17:40:11Z,2013-04-12T15:09:10Z,zenbu,,ElementarySchool
1010815,Halsey Drive School,State Co-Ed Primary School,http://www.halseydrive.school.nz,"106 Halsey Drive, Lynfield, Auckland",09 627 9106,,NZ,174.719457,-36.932661,number,1,2006-08-11T17:40:12Z,2013-04-12T14:57:06Z,zenbu,,ElementarySchool
1010829,Halswell School,"State Co-Ed Primary, Intermediate School",http://www.halswell.school.nz/,"437 Halswell Road, Christchurch",03 322 7038,,NZ,172.569649,-43.589839,number,1,2006-08-11T17:40:12Z,2013-04-12T14:57:06Z,zenbu,,ElementarySchool MiddleSchool
1010843,Hamilton Christian School,"Private Co-Ed Primary, Intermediate, Secondary School.",http://www.hamiltonchristian.school.nz,"4 North City Road, Hamilton",07 854 0010,,NZ,175.260266,-37.722375,number,1,2006-08-11T17:40:12Z,2013-04-12T14:52:59Z,zenbu,,ElementarySchool
1010850,Hamilton East School,State Co-Ed Primary School,http://www.hameast.school.nz,"Dawson Street, Hamilton East, Hamilton",07 839 3377,,NZ,175.290298,-37.787335,manual,1,2006-08-11T17:40:12Z,2013-04-12T14:51:57Z,zenbu,,ElementarySchool
1010871,Hamilton Seventh-Day Adventist School,"State Integrated Co-Ed Primary, Intermediate School",http://www.hamiltonsda.school.nz,"Annebrook Road, Hillcrest, Hamilton",07 856 4417,,NZ,175.337677,-37.806597,manual,1,2006-08-11T17:40:13Z,2007-12-09T21:30:05Z,burgla,,ElementarySchool MiddleSchool
1010878,Hamilton West School,"State Co-Ed Primary, Intermediate School.",http://www.hamwest.school.nz,"Fow Street, Hamilton",07 839 4911,,NZ,175.28286,-37.79944,manual,1,2006-08-11T17:40:13Z,2013-04-12T14:54:50Z,zenbu,,ElementarySchool MiddleSchool
1010899,Hammersley Park School,State Co-Ed Primary School,http://www.hammersleypark.school.nz,"Quinns Road, Shirley, Christchurch",03 385 3737,,NZ,172.657882,-43.501173,manual,1,2006-08-11T17:40:13Z,2011-10-05T01:13:02Z,zenbu-cc,,ElementarySchool
1010906,Hampden School,"State Co-Ed Primary, Intermediate School",,"41-47 Norwich Street, Hampden",03 439 4603,,NZ,170.815932,-45.325318,number,1,2006-08-11T17:40:13Z,2013-04-12T14:57:05Z,zenbu,,ElementarySchool MiddleSchool
1010913,Hampden Street School,State Co-Ed Primary School,http://www.hampdenstreet.school.nz,"250 Hampden Street, Nelson",03 548 1825,,NZ,173.275934,-41.28414,number,1,2006-08-11T17:40:13Z,2013-04-12T14:57:06Z,zenbu,,ElementarySchool
1010920,Hampstead School,State Co-Ed Primary School,,"Wellington Street, Ashburton",03 308 6476,,NZ,171.760039,-43.912456,manual,1,2006-08-11T17:40:13Z,2007-10-22T19:47:40Z,burgla,,ElementarySchool
1010927,Hampton Hill School,State Co-Ed Primary School,http://www.hamptonhill.school.nz,"Rimu Street, Tawa, Wellington",04 232 6509,,NZ,174.822822,-41.166286,manual,1,2006-08-11T17:40:13Z,2013-04-12T14:57:06Z,zenbu,,ElementarySchool
1010934,Hangatiki Primary School,"State Co-Ed Primary, Intermediate School",http://www.hangatiki.school.nz/,"591 Hangatiki East Road, Hangatiki, Te Kuiti",07 873 6471,,NZ,175.181376,-38.262837,number,1,2006-08-11T17:40:13Z,2013-04-12T14:57:06Z,zenbu,,ElementarySchool MiddleSchool
