codigo,nome,enderezo,concello,provincia,cpostal,telf,latitude,longitude,titularidade,concertado,dependente
36011521,CPR Vivas,"Principe, 17 - 24",Vigo,Pontevedra,36202,986227085,42.23726,-8.723809,Privada,Si,Non
32008914,CPR Santo Cristo,Rúa San Pedro 2,Ourense,Ourense,32005,988220588,42.33639,-7.861965,Privada,Si,Non
36010794,CPR Fillas de María Inmaculada,Avenida Vazquez Varela 57,Vigo,Pontevedra,36204,986423988,42.229263,-8.715698,Privada,Si,Non
36020155,CPR Estudio,Rúa das Laxes 31,Nigrán,Pontevedra,36360,986363224,42.161827,-8.765218,Privada,Si,Non
36011351,CPR San José de Cluny,Rúa CARBALLO 46,Vigo,Pontevedra,36204,986493501,42.223724,-8.713061,Privada,Si,Non
36011270,CPR Plurilingüe Rosalía de Castro,Estrada de Bembrive 91,Vigo,Pontevedra,36214,986420433,42.21091,-8.694359,Privada,Si,Non
36011117,CPR Plurilingüe Losada,Rúa Baixada o Capitan 31,Vigo,Pontevedra,36214,986272229,42.227867,-8.691854,Privada,Si,Non
36010800,CPR Niño Jesús de Praga,Rúa Areal 92,Vigo,Pontevedra,36201,986433800,42.238636,-8.713392,Privada,Si,Non
36010356,CPR Plurilingüe Escuelas Nieto,"Avenida Ramon Nieto, 247 - Lavadores",Vigo,Pontevedra,36205,986372481,42.229668,-8.686559,Privada,Si,Non
36009123,CPR Plurilingüe María Inmaculada,Rúa María  Colmeiro 4,Silleda,Pontevedra,36540,986580013,42.696613,-8.245542,Privada,Si,Non
32003783,CPR Plurilingüe Sagrado Corazón,Rúa Areal 13,Celanova,Ourense,32800,988431516,42.150043,-7.95967,Privada,Si,Non
27007211,CPR Plurilingüe Fundación Educativa Torre de Lemos,Rúa Santo Domingo s/n,Monforte de Lemos,Lugo,27400,982400350,42.52391,-7.51276,Privada,Si,Non
27004465,CPR Plurilingüe Nuestra Señora del Pilar,Rúa Virgen del Pilar 27,Foz,Lugo,27780,982140196,43.568848,-7.2600155,Privada,Si,Non
15006511,CPR Plurilingüe Santa Juana de Lestonnac,Rúa Nai Lestonnac s/n,Ferrol,Coruña (A),15406,981311449,43.485237,-8.205215,Privada,Si,Non
15006432,CPR Tirso de Molina,Arce s/n,Ferrol,Coruña (A),15401,981352109,43.482723,-8.238716,Privada,Si,Non
15006420,CPR Plurilingüe La Salle,Rúa Pardo Bazan s/n,Ferrol,Coruña (A),15406,981318111,43.482475,-8.201057,Privada,Si,Non
15004654,CPR Plurilingüe Santo Domingo,Praza de Santo Domingo 1,Coruña (A),Coruña (A),15001,981205850,43.370193,-8.391329,Privada,Si,Non
15004538,CPR Plurilingüe Salesiano San Juan Bosco,Rúa Hospital 14,Coruña (A),Coruña (A),15003,981203550,43.37348,-8.402607,Privada,Si,Non
36019840,CEEPR San Jerónimo Emiliani,Rúa GALICIA 23,Guarda (A),Pontevedra,36780,986613719,41.902657,-8.870857,Privada,Si,Non
36019815,CEEPR Amencer,Rúa Pontemuiños s/n - Poboado de Celulosas,Pontevedra,Pontevedra,36001,986864643,42.42596,-8.645313,Privada,Si,Non
36018847,CEEPR Juan María,Rúa das Agullas 12,Nigrán,Pontevedra,36379,986386914,42.124146,-8.787412,Privada,Si,Non
15032674,CEEPR AMICOS,Rúa Gándara 33,Ribeira,Coruña (A),15993,,42.608303,-9.007947,Privada,Si,Non
36019864,CEEPR Bata - Os Mecos,Baión (San Xoán),Vilanova de Arousa,Pontevedra,36614,986565128,42.562183,-8.712749,Privada,Si,Non
36006675,CPR San José,Rúa Princesa 1,Pontevedra,Pontevedra,36002,986861990,42.43308,-8.64582,Privada,Si,Non
36011609,CPR Colegio Hogar Afundación,Rúa FILIPINAS 6,Vigo,Pontevedra,36204,986414311,42.22711,-8.714254,Privada,Si,Non
32015530,CPR San Martín,Avenida de Marín 23-25,Ourense,Ourense,32005,988221990,42.319714,-7.8621073,Privada,Si,Non
15004231,CPR Plurilingüe Karbo,"Rúa Ramon Cabanillas, 2 - 1º",Coruña (A),Coruña (A),15007,981236179,43.35214,-8.413227,Privada,Si,Non
15010769,CPR Plurilingüe María Assumpta,Avenida VIZCONDE DE SAN ALBERTO 32,Noia,Coruña (A),15200,981820500,42.77626,-8.891399,Privada,Si,Non
15004794,CPR Fogar de Santa Margarida,Rúa VALLE INCLAN 3,Coruña (A),Coruña (A),15011,981251090,43.36622,-8.413932,Privada,Si,Non
36016024,CPR Plurilingüe Abrente,"Estrada de Adigna, s/n (Portonovo)",Sanxenxo,Pontevedra,36979,986723494,42.40143,-8.830541,Privada,Si,Non
36012468,CPR Plurilingüe San Francisco,Rúa Edelmiro Trillo 15,Vilagarcía de Arousa,Pontevedra,36600,986501927,42.59459,-8.765079,Privada,Si,Non
36011491,CPR Possumus,Rúa PURIFICACION SAAVEDRA 62,Vigo,Pontevedra,36207,986371330,42.250046,-8.699306,Privada,Si,Non
36011221,CPR Plurilingüe Padre Míguez,Rúa Montecelo 1,Vigo,Pontevedra,36207,986437723,42.242344,-8.706246,Privada,Si,Non
36010927,CPR Plurilingüe Alborada,Avenida Aeroporto 392,Vigo,Pontevedra,36317,986272432,42.23446,-8.670342,Privada,Si,Non
36006973,CPR Plurilingüe Hermanos Quiroga Rodríguez,Rúa Antonio Palacios s/n,Porriño (O),Pontevedra,36400,986330689,42.160923,-8.614462,Privada,Si,Non
36006641,CPR Plurilingüe Calasancio,Rúa Blanco Porto 15,Pontevedra,Pontevedra,36001,986850941,42.428383,-8.639325,Privada,Si,Non
36005427,CPR Plurilingüe Lar,Avenida REBULLON 21,Mos,Pontevedra,36416,986487792,42.206463,-8.659827,Privada,Si,Non
36004526,CPR San Narciso,Lugar CHAN DO MONTE 27,Marín,Pontevedra,36900,986881408,42.38931,-8.708128,Privada,Si,Non
36002323,CPR Plurilingüe Nuestra Señora de Lourdes,Rúa do Cruceiro 32,Estrada (A),Pontevedra,36680,986570874,42.69137,-8.493278,Privada,Si,Non
32016728,CPR Plurilingüe Luís Vives,Rúa AIRA DE FONSILLÓN 4,Ourense,Ourense,32005,988242000,42.323044,-7.8762317,Privada,Si,Non
32013557,CPR Plurilingüe María Inmaculada,Avenida de Portugal 59,Verín,Ourense,32600,988410756,41.935604,-7.4384413,Privada,Si,Non
32002973,CPR Plurilingüe Sagrado Corazón,Praza Irmans Prieto 7,Carballiño (O),Ourense,32500,988270194,42.430298,-8.078636,Privada,Si,Non
27006322,CPR La Inmaculada,Rúa Angel Lopez Perez 2,Lugo,Lugo,27002,982280392,43.008244,-7.555199,Privada,Si,Non
15015627,CPR Plurilingüe San José de Cluny,Rúa A Rosa 13,Santiago de Compostela,Coruña (A),15701,981592540,42.87183,-8.547108,Privada,Si,Non
15015615,CPR San Francisco Javier,Rúa Virxe da Cerca 31,Santiago de Compostela,Coruña (A),15703,981581908,42.88,-8.540666,Privada,Si,Non
15015603,CPR Plurilingüe La Salle,Praza SAN XOÁN BAUTISTA DE LA SALLE 1,Santiago de Compostela,Coruña (A),15704,981584611,42.88375,-8.541475,Privada,Si,Non
15014416,CPR Plurilingüe La Milagrosa - Josefa Sobrido,A Gandara 11,Ribeira,Coruña (A),15993,981865577,42.606056,-9.005806,Privada,Si,Non
15014349,CPR Sagrado Corazón de Jesús,Rúa Fonte Nova 4,Ribeira,Coruña (A),15966,981840381,42.53291,-8.996193,Privada,Si,Non
15006501,CPR Plurilingüe Cristo Rey,"A Coruña, 35 - 37",Ferrol,Coruña (A),15401,981353060,43.484493,-8.236393,Privada,Si,Non
15003200,CPR Plurilingüe Manuela Rial Mouzo,Rúa da Mariña 7,Cee,Coruña (A),15270,981745078,42.95155,-9.1863785,Privada,Si,Non
15000600,CPR Ntra. Sra. del Rosario,Rúa Carmen 22,Arzúa,Coruña (A),15810,981500035,42.926342,-8.164634,Privada,Si,Non
36010836,CPR Breogán,"Avenida Aeroporto, 35-37",Vigo,Pontevedra,36206,986273946,42.234867,-8.699728,Privada,Si,Non
32016194,CPR Plurilingüe Guillelme Brown,A MERTEIRA,Pereiro de Aguiar (O),Ourense,32710,988259589,42.34499,-7.809642,Privada,Si,Non
15006547,CPR San Rosendo,Rúa Pintor Maximo Ramos 11,Ferrol,Coruña (A),15401,981357562,43.482468,-8.241736,Privada,Si,Non
36000429,CPR Plurilingüe La Encarnación,Avenida Dolores Mosquera 4,Caldas de Reis,Pontevedra,36650,986540052,42.606026,-8.643172,Privada,Si,Non
32009050,CPR Plurilingüe San Pío X,Avenida de Zamora 98,Ourense,Ourense,32005,988221127,42.323906,-7.8634214,Privada,Si,Non
15015524,CPR Vilas Alborada,"Rúa Fraguas, 26-28",Santiago de Compostela,Coruña (A),15703,981585791,42.880436,-8.535002,Privada,Si,Non
15006602,CPR Belén,"Praza do Tronco, 1-3",Ferrol,Coruña (A),15403,981312176,43.49002,-8.226131,Privada,Si,Non
15005853,CPR A Ponte Pasaxe,Estrada de Fonteculler 72,Culleredo,Coruña (A),15174,981661666,43.32826,-8.382051,Privada,Si,Non
36015962,CPR Campelo Afundación,Praza Capela 3,Poio,Pontevedra,36994,986770138,42.431255,-8.682247,Privada,Si,Non
15021925,CPR Ntra. Sra. del Monte Carmelo,Campo da Feira,Pobra do Caramiñal (A),Coruña (A),15940,981831304,42.605015,-8.9392605,Privada,Si,Non
36011348,CPR San Miguel,"Joaquin Loriga , 2 - 1º",Vigo,Pontevedra,36203,986221325,42.234818,-8.721579,Privada,Si,Non
36016723,CPR Mendiño,Pi y Margall 139,Vigo,Pontevedra,36202,986293444,42.228813,-8.732019,Privada,Si,Non
15004061,CPR Cervantes,Rúa Ramon do Cueto 23,Coruña (A),Coruña (A),15002,981204648,43.37622,-8.400159,Privada,Si,Non
15004782,CPR Plurilingüe La Grande Obra de Atocha,Rúa BALTASAR PARDAL VIDAL 1,Coruña (A),Coruña (A),15001,981222542,43.37347,-8.396196,Privada,Si,Non
36011865,CPR Quiñones de León,"Travesa de Vigo, 36",Vigo,Pontevedra,36206,986278089,42.23403,-8.706027,Privada,Si,Non
36011211,CPR Plurilingüe San Miguel 2,Rúa Tomas A. Alonso 13,Vigo,Pontevedra,36208,986293282,42.22356,-8.736999,Privada,Si,Non
36011181,CPR Plurilingüe Mariano,Rúa URZAIZ 122,Vigo,Pontevedra,36205,986275168,42.2313,-8.708665,Privada,Si,Non
36011142,CPR Plurilingüe María Auxiliadora,Rúa Venezuela 7,Vigo,Pontevedra,36203,986433855,42.23421,-8.723718,Privada,Si,Non
36006699,CPR Plurilingüe Sagrado Corazón de Jesús,Rúa A Estrada 24,Pontevedra,Pontevedra,36004,986856350,42.427193,-8.629633,Privada,Si,Non
36000831,CPR Sagrada Familia,Avenida Xose Graña 4,Cangas,Pontevedra,36945,986329575,42.281048,-8.81935,Privada,Si,Non
32008665,CPR Plurilingüe Divino Maestro,Rúa Madre Soledad 1,Ourense,Ourense,32001,988217800,42.355373,-7.864591,Privada,Si,Non
32008604,CPR Plurilingüe Santa Maria,Rúa BEDOYA 9,Ourense,Ourense,32004,988228152,42.340458,-7.86215,Privada,Si,Non
32008550,CPR Plurilingüe San José,Rúa do Progreso 24,Ourense,Ourense,32005,988220990,42.333916,-7.8656263,Privada,Si,Non
32008458,CPR Plurilingüe María Auxiliadora,Praza DE DON BOSCO 1,Ourense,Ourense,32003,988370537,42.343678,-7.868051,Privada,Si,Non
27007235,CPR Ferroviario,Rúa A Coruña 14,Monforte de Lemos,Lugo,27400,982400780,42.529087,-7.50665,Privada,Si,Non
27004453,CPR Plurilingüe Martínez Otero,Rúa Alcalde Maañon 12,Foz,Lugo,27780,982140028,43.566593,-7.2585993,Privada,Si,Non
15024884,CPR Plurilingüe Rias Altas,Estrada da Zapateira s/n,Culleredo,Coruña (A),15192,981174371,43.31477,-8.41078,Privada,Si,Non
15010071,CPR Jorge Juan,Rúa Marcial Calvo 1,Narón,Coruña (A),15570,981383020,43.515434,-8.157864,Privada,Si,Non
15004009,CPR Plurilingüe Calasancias,Estrada dos Fortes 11,Coruña (A),Coruña (A),15011,981256430,43.371624,-8.429469,Privada,Si,Non
15000132,CPR Alca,Lugar Biduído de Arriba 36,Ames,Coruña (A),15895,981531103,42.846325,-8.600729,Privada,Si,Non
36015287,CEEPR ASPANAEX,Rúa Mestres Goldar 18,Vigo,Pontevedra,36213,986208395,42.21032,-8.726095,Privada,Si,Non
36015998,CEEPR Menela,"Camiño da Veiguiña, 17 - Alcabre",Vigo,Pontevedra,36212,986240703,42.2199,-8.758772,Privada,Si,Non
32020823,CEEPR Ilustre Mestre,Rúa PUGA s/n,Ourense,Ourense,32005,988219389,42.32697,-7.858336,Privada,Si,Non
15027678,CEEPR ASPANAES,"Rúa Areosa, Poboado das Veigas s/n",Pontes de García Rodríguez (As),Coruña (A),15320,981450542,43.44865,-7.8604817,Privada,Si,Non
36010253,CEEPR Fogar e Clin. San Rafael,Rúa San Juan de Dios 1,Vigo,Pontevedra,36208,986232740,42.222977,-8.746582,Privada,Si,Non
15015241,CPR Plurilingüe Ntra. Sra. Inmaculada,Rúa Santiago 15,Santa Comba,Coruña (A),15840,981880085,43.03333,-8.802897,Privada,Si,Non
15006638,CPR Ludy,"Rúa Rio Lambre, 6-8",Ferrol,Coruña (A),15403,981311813,43.48943,-8.226855,Privada,Si,Non
15004046,CPR Cid,Ronda de Nelle 143,Coruña (A),Coruña (A),15010,981255244,43.364555,-8.418521,Privada,Si,Non
15005270,CPR Afundación A Coruña,Rúa Ribadavia 4,Coruña (A),Coruña (A),15007,981236552,43.358734,-8.411273,Privada,Si,Non
15005488,CPR López y Vicuña,Rúa Santiago 1 bis,Coruña (A),Coruña (A),15001,981226244,43.370358,-8.394956,Privada,Si,Non
15004265,CPR Plurilingüe Liceo La Paz,Avenida Sebastián Matínez Risco 12,Coruña (A),Coruña (A),15009,981286299,43.341568,-8.402298,Privada,Si,Non
36016115,CPR Eduardo Pondal,"Lugar Seixo, Darbo 68,69",Cangas,Pontevedra,36949,986303032,42.26648,-8.804587,Privada,Si,Non
36012456,CPR Plurilingüe Sagrada Familia,Rúa Vista Alegre 2,Vilagarcía de Arousa,Pontevedra,36600,986500375,42.59278,-8.76871,Privada,Si,Non
36011831,CPR Plurilingüe Las Acacias,Rúa PARROCHA 26,Vigo,Pontevedra,36214,986278016,42.21464,-8.687485,Privada,Si,Non
36011518,CPR Plurilingüe Mercantil,Rúa TOMÁS ALONSO 56/58,Vigo,Pontevedra,36208,986233818,42.22476,-8.734807,Privada,Si,Non
36011178,CPR Plurilingüe Miralba,Gran Via 164,Vigo,Pontevedra,36211,986213047,42.22157,-8.728638,Privada,Si,Non
36010939,CPR Plurilingüe Barreiro,"Estrada de Valadares, 78 - O Seixo",Vigo,Pontevedra,36314,986467800,42.184902,-8.722366,Privada,Si,Non
36007515,CPR Plurilingüe Santiago Apóstol,Avenida Castelao 45,Ponteareas,Pontevedra,36860,986640112,42.174126,-8.50964,Privada,Si,Non
36000569,CPR Salesianos A Mercé,Serantellos 1,Cambados,Pontevedra,36639,986542750,42.489773,-8.802516,Privada,Si,Non
32009062,CPR Cardenal Cisneros,Emilia Pardo Bazan 21,Ourense,Ourense,32004,988225495,42.33914,-7.859226,Privada,Si,Non
32008616,CPR Padre Feijoo Zorelle,Doutor Fleming 21,Ourense,Ourense,32003,988230401,42.337574,-7.867445,Privada,Si,Non
27006437,CPR Plurilingüe San José,Rúa Santiago 2,Lugo,Lugo,27004,982221501,43.008373,-7.5598974,Privada,Si,Non
15013497,CPR Luís Vives,Avenida Ricardo Sanchez 51,Pontedeume,Coruña (A),15600,981430719,43.404587,-8.163099,Privada,Si,Non
15011002,CPR Plurilingüe Hijas de Cristo Rey,Avenida M. Hernandez 24,Oleiros,Coruña (A),15176,981610050,43.3267,-8.327036,Privada,Si,Non
15010794,CPR Plurilingüe Jaime Balmes,Rúa DEVESA DO MARQUÉS 16,Noia,Coruña (A),15210,981820214,42.793827,-8.874014,Privada,Si,Non
15010204,CPR Santiago Apóstol,Rúa Ferrol s/n,Narón,Coruña (A),15570,981383851,43.493717,-8.1997,Privada,Si,Non
15006456,CPR Plurilingüe Sagrado Corazón,Estrada de Castilla 160,Ferrol,Coruña (A),15404,981371691,43.49089,-8.216668,Privada,Si,Non
15002566,CPR Artai,"Estrada RAZO Km 1,2",Carballo,Coruña (A),15100,981703260,43.225136,-8.694483,Privada,Si,Non
15006596,CEEPR Nosa Señora do Chamorro,Lugar do Cruceiro s/n,Narón,Coruña (A),15541,981363427,43.560513,-8.2101555,Privada,Si,Non
32016731,CPR Malvedo,O Malvedo,Coles,Ourense,32950,988204070,42.382404,-7.848148,Privada,Si,Non
36003820,CPR Nuestra Señora del Carmen,Rúa Luis A.Mestre 31,Grove (O),Pontevedra,36980,986730914,42.492016,-8.8659935,Privada,Si,Non
15027046,CPR Raiola,Rúa Raiola 2,Santiago de Compostela,Coruña (A),15702,981594060,42.86198,-8.536361,Privada,Si,Non
36011191,CPR Plurilingüe Montecastelo,Rúa Dr.Paz Pardo 84,Vigo,Pontevedra,36214,986412488,42.21462,-8.693728,Privada,Si,Non
36000417,CPR San Fermín,Rúa FERMIN MOSQUERA 2,Caldas de Reis,Pontevedra,36650,986540075,42.60415,-8.647162,Privada,Si,Non
32009189,CPR Ramón María del Valle- Inclán,Enseñanza 20,Ourense,Ourense,32002,988366214,42.340744,-7.8699794,Privada,Si,Non
36011361,CPR Plurilingüe San José de la Guía,Dr. Corbal 25,Vigo,Pontevedra,36207,986376153,42.2506,-8.696778,Privada,Si,Non
36024057,CPR Bouza Brey,"Rúa Baixada a San Xoán, 167 00",Vigo,Pontevedra,36206,986377238,42.238262,-8.695329,Privada,Si,Non
36016097,CPR Plurilingüe Montesol,Rúa Salceda de Caselas (Coia) 8,Vigo,Pontevedra,36209,986208512,42.213768,-8.750557,Privada,Si,Non
36011531,CPR Plurilingüe Alba,Esperanto 8,Vigo,Pontevedra,36204,986411810,42.232765,-8.710195,Privada,Si,Non
36010824,CPR Plurilingüe Monterrey,"Montecelo Alto, 41-43",Vigo,Pontevedra,36207,986272047,42.242573,-8.7017355,Privada,Si,Non
36010095,CPR Martín Códax,Avenida Aeroporto 734,Vigo,Pontevedra,36318,986288095,42.229095,-8.635377,Privada,Si,Non
36000351,CPR Virgen Milagrosa,Rúa Fontenla 55,Bueu,Pontevedra,36930,986320143,42.324768,-8.787239,Privada,Si,Non
32020631,CPR Pablo VI Fátima,Rúa Pablo VI 6,Rúa (A),Ourense,32350,988310050,42.390034,-7.1269298,Privada,Si,Non
32016066,CPR Plurilingüe Vila do Arenteiro,Os Corzos s/n,Carballiño (O),Ourense,32500,988271400,42.43265,-8.057777,Privada,Si,Non
32008446,CPR Concepción Arenal,Rúa BEDOYA 22,Ourense,Ourense,32004,988220200,42.33914,-7.8607073,Privada,Si,Non
27011998,CPR Plurilingüe La Merced,Avenida da Merce 58,Sarria,Lugo,27600,982532357,42.778553,-7.420923,Privada,Si,Non
27011974,CPR Plurilingüe Ntra. Sra. de la Asunción,Rúa DA ASUNCION 34,Sarria,Lugo,27600,982531981,42.783234,-7.4113297,Privada,Si,Non
27006280,CPR Plurilingüe Padres Franciscanos,Praza Maior 26,Lugo,Lugo,27001,982227107,43.00942,-7.556314,Privada,Si,Non
27006243,CPR María Auxiliadora,Avenida RAMÓN FERREIRO 30,Lugo,Lugo,27002,982284369,43.002914,-7.5525,Privada,Si,Non
15032157,CPR Plurilingüe Andaina,Rúa Aguaceiros 21,Culleredo,Coruña (A),15174,981138880,43.321484,-8.402848,Privada,Si,Non
15022000,CPR Plurilingüe Montegrande,Avenida NUEVA YORK 178,Coruña (A),Coruña (A),15008,981288177,43.3072,-8.430639,Privada,Si,Non
15015548,CPR Plurilingüe Divino Maestro,Rúa Dr.Blanco Najera 2,Santiago de Compostela,Coruña (A),15706,981522289,42.870182,-8.557563,Privada,Si,Non
15015378,CPR Plurilingüe Compañía de María,Rúa Enseñanza 3,Santiago de Compostela,Coruña (A),15703,981587500,42.878693,-8.541177,Privada,Si,Non
15014532,CPR Bayón,Cubeliño 33,Ribeira,Coruña (A),15960,981871110,42.55292,-9.001236,Privada,Si,Non
15007230,CPR Ntra.Sra. del Carmen,Rúa Virxe das Areas 2,Fisterra,Coruña (A),15155,981740428,42.903774,-9.262226,Privada,Si,Non
15004460,CPR Plurilingüe Peñarredonda,Rúa Ginebra 3,Coruña (A),Coruña (A),15009,981286533,43.331562,-8.400874,Privada,Si,Non
15004435,CPR Plurilingüe Padres Franciscanos,Avenida Calvo Sotelo 41,Coruña (A),Coruña (A),15004,981262606,43.36391,-8.413782,Privada,Si,Non
15004101,CPR Plurilingüe Cristo Rey,Lugar Elviña 149,Coruña (A),Coruña (A),15009,981287530,43.336304,-8.400436,Privada,Si,Non
15004083,CPR Plurilingüe Compañía de María,Rúa Calvo Sotelo 2,Coruña (A),Coruña (A),15004,981250350,43.36688,-8.413956,Privada,Si,Non
15001112,CPR Nuestra Señora del Carmen,"Avenida de Castilla, 146-152",Betanzos,Coruña (A),15300,981770452,43.270885,-8.204856,Privada,Si,Non
36006456,CEEPR Juan XXIII,Rúa Eduardo Blanco Amor 66,Pontevedra,Pontevedra,36003,986855018,42.420876,-8.64675,Privada,Si,Non
15021950,CEEPR Aspace,Lugar CASTELIÑO 24,Sada,Coruña (A),15160,981610312,43.341095,-8.292475,Privada,Si,Non
15025359,CEEPR Aspanaes,San Pedro de Leixa s/n,Ferrol,Coruña (A),15405,981320091,43.510372,-8.214275,Privada,Si,Non
15025347,CEEPR Aspanaes-Duques de Lugo,Rúa da Raiola 6,Santiago de Compostela,Coruña (A),15702,981596589,42.86226,-8.536339,Privada,Si,Non
15004198,CPR Plurilingüe Hijas de Jesús,Avenida NUEVA YORK 5,Coruña (A),Coruña (A),15008,981285877,43.330364,-8.404175,Privada,Si,Non
36013801,CPR Sonrisas y Lágrimas,Rúa Entrecortiñas 17,Illa de Arousa (A),Pontevedra,36626,986551296,42.560623,-8.86881,Privada,Si,Non
15020313,EFAG El Piñeiral,Santa Maria de Arzua,Arzúa,Coruña (A),15810,981500580,42.937325,-8.160964,Privada,Si,Non
36011622,CPR Aloya,Rúa Couto 2,Vigo,Pontevedra,36203,986420722,42.230717,-8.722613,Privada,Si,Non
36011853,CPR Daniel Castelao,Rúa Garcia Barbón 50 Baixo,Vigo,Pontevedra,36201,986442121,42.236835,-8.7141905,Privada,Si,Non
15004356,CPR Nebrija Torre de Hércules,Avenida CALVO SOTELO 31,Coruña (A),Coruña (A),15004,981259006,43.36476,-8.413798,Privada,Si,Non
15021986,CPR Cruz Roja Española,Rúa Médico Devesa Núñez 1,Coruña (A),Coruña (A),15008,981169163,43.34695,-8.414769,Privada,Si,Non
36016152,CPR Divino Maestro,Rúa Camiño do Cancelo 32,Vigo,Pontevedra,36207,986371686,42.25241,-8.699603,Privada,Si,Non
36005671,EFAG A Cancela,Rúa Tortoreos s/n,Neves (As),Pontevedra,36449,986648250,42.09746,-8.423923,Privada,Si,Non
36011300,CPR Plurilingüe San Blas - Vista Alegre,Subida ao Cemiterio  de Puxeiros 28,Vigo,Pontevedra,36318,986376288,42.220654,-8.670251,Privada,Si,Non
36011166,CPR Plurilingüe María Inmaculada,Rúa Pi e Margall 58,Vigo,Pontevedra,36202,986229520,42.232803,-8.730944,Privada,Si,Non
36009925,CPR Plurilingüe Amor de Dios,Avenida de Europa 21,Vigo,Pontevedra,36212,986240669,42.216103,-8.758529,Privada,Si,Non
36007527,CPR Plurilingüe La Inmaculada,Rúa AMADO GARRA 2,Ponteareas,Pontevedra,36860,986640065,42.173183,-8.50544,Privada,Si,Non
36004514,CPR Plurilingüe La Inmaculada,Rúa A Estrada 8,Marín,Pontevedra,36900,986881076,42.391724,-8.700197,Privada,Si,Non
36000910,CPR Casa de la Virgen,Rúa Rodeira 12,Cangas,Pontevedra,36940,986392313,42.261295,-8.766049,Privada,Si,Non
32008707,CPR Plurilingüe La Purísima,Rúa Santo Domingo 32,Ourense,Ourense,32003,988221541,42.33861,-7.863156,Privada,Si,Non
27010911,CPR Sagrado Corazón de Jesús,Rúa Carlos III s/n,Ribadeo,Lugo,27700,982128415,43.538723,-7.044988,Privada,Si,Non
15015482,CPR Plurilingüe San Pelayo,"Rúa Virxe da Cerca, 15-16 15-16-17",Santiago de Compostela,Coruña (A),15703,981587112,42.8802,-8.54062,Privada,Si,Non
15006353,CPR Jorge Juan,Avenida do Tarrio 78,Fene,Coruña (A),15500,981340109,43.47118,-8.169698,Privada,Si,Non
15004010,CPR Calasanz - PP Escolapios,Estrada dos Fortes 10,Coruña (A),Coruña (A),15011,981253684,43.372772,-8.429389,Privada,Si,Non
36009627,CPR Neuropsicopedagógico O Pelouro,Rúa Os Baños 81,Tui,Pontevedra,36460,986629024,42.055965,-8.567162,Privada,Si,Non
15020431,CPR Agarimo,Rúa Padre Villa 30,Arteixo,Coruña (A),15141,981600687,43.31036,-8.487008,Privada,Si,Non
15015469,CPR San Jorge,Avenida Coimbra 24,Santiago de Compostela,Coruña (A),15704,981581398,42.886806,-8.541162,Privada,Si,Non
15015551,CPR Plurilingüe La Inmaculada,Rúa Concepcion Arenal 11,Santiago de Compostela,Coruña (A),15702,981586191,42.876316,-8.5431,Privada,Si,Non
15015366,CPR Casa del Niño,Canteira de Arriba 17,Santiago de Compostela,Coruña (A),15703,981587830,42.88558,-8.520139,Privada,Si,Non
15001461,CPR Sagrada Familia,Rúa Magdalena n.22 (Escarabote),Boiro,Coruña (A),15992,981844731,42.639126,-8.903709,Privada,Si,Non
15026649,CPR Divino Maestro,Lugar VIRXE DO MONTE 6,Pobra do Caramiñal (A),Coruña (A),15940,981830011,42.609604,-8.939814,Privada,Si,Non
36019876,CPR Santa María,Os Maristas s/n,Tui,Pontevedra,36700,986607025,42.054413,-8.647022,Privada,Si,Non
36011099,CPR Plurilingüe Labor,Avenida das Camelias 53,Vigo,Pontevedra,36211,986414529,42.229782,-8.730207,Privada,Si,Non
36010976,CPR Plurilingüe Compañía de María,"Ecuador, 33-35",Vigo,Pontevedra,36203,986436400,42.233837,-8.720577,Privada,Si,Non
36010915,CPR Plurilingüe Atlántida,Rúa Rocio 7,Vigo,Pontevedra,36208,986233938,42.22003,-8.752206,Privada,Si,Non
36010903,CPR Plurilingüe Apostol Santiago,Sanjurjo Badia 79,Vigo,Pontevedra,36207,986371011,42.24498,-8.703837,Privada,Si,Non
36010848,CPR Plurilingüe San Fernando,Baixada Salgueira 39,Vigo,Pontevedra,36204,986410174,42.225616,-8.716239,Privada,Si,Non
36006237,"CPR Plurilingüe Sagrado Corazón de Jesús, Placeres","Rúa da Praia, 8 (Os Placeres)",Pontevedra,Pontevedra,36910,986881349,42.407413,-8.684355,Privada,Si,Non
36003960,CPR Padres Somascos,Pacifico Rodriguez 6,Guarda (A),Pontevedra,36780,986610975,41.90186,-8.871582,Privada,Si,Non
36001008,CPR Compañía de María,"Rúa Enseñanza, 19 - Cima de Vila",Cangas,Pontevedra,36940,986300580,42.267895,-8.787255,Privada,Si,Non
32008525,CPR Plurilingüe Divina Pastora,Rúa CARDENAL QUEVEDO 27,Ourense,Ourense,32004,988232232,42.342827,-7.8611684,Privada,Si,Non
32008513,CPR Plurilingüe Santa Teresa de Jesús,Peña Trevinca 2,Ourense,Ourense,32005,988221536,42.336205,-7.861147,Privada,Si,Non
32008410,CPR Plurilingüe Santo Ángel,Vila Real 6,Ourense,Ourense,32002,988220487,42.33932,-7.8717227,Privada,Si,Non
32001661,CPR Plurilingüe Divina Pastora,Rúa Ramon del Valle Inclan 2,Barco de Valdeorras (O),Ourense,32300,988347058,42.41942,-6.9812107,Privada,Si,Non
27007223,CPR Padres Escolapios,Campo de la Compañia 50,Monforte de Lemos,Lugo,27400,982400450,42.51848,-7.516418,Privada,Si,Non
15010137,CPR Ayala,Rúa Cristobal Colon 71,Narón,Coruña (A),15407,981380394,43.499924,-8.205451,Privada,Si,Non
15006481,CPR Compañía de María,Rúa SAN AMARO 18,Ferrol,Coruña (A),15403,981322796,43.484497,-8.229146,Privada,Si,Non
15004642,CPR Santa María del Mar,Avenida do Pasaxe 69,Coruña (A),Coruña (A),15006,981283000,43.335567,-8.388893,Privada,Si,Non
15027757,CEEPR Aspanaes,Rúa O CATECISMO 7,Coruña (A),Coruña (A),15008,981293552,43.330467,-8.406593,Privada,Si,Non
36015275,CEEPR San Francisco,Avenida DE EUROPA 94,Vigo,Pontevedra,36212,672150928,42.21166,-8.771918,Privada,Si,Non
36014234,CPR Atalaya - Cantabria,Rúa Cantabria 18,Vigo,Pontevedra,36205,986276012,42.233112,-8.696566,Privada,Si,Non
32020720,CPR Plurilingüe Miraflores,Urbanización MONTE ALEGRE,Pereiro de Aguiar (O),Ourense,32710,988256018,42.331615,-7.8147006,Privada,Si,Non
27006218,CPR Cervantes,Camiño DE PIPIN 25,Lugo,Lugo,27004,982218711,43.022064,-7.565994,Privada,Si,Non
15015597,CPR La Milagrosa,Avenida Barcelona 13,Santiago de Compostela,Coruña (A),15706,981520791,42.87208,-8.556981,Privada,Si,Non
15015421,CPR Juventud,Rúa Concheiros 43,Santiago de Compostela,Coruña (A),15703,981587597,42.88441,-8.533955,Privada,Si,Non
36015949,CPR San José,Edificio BARRIO O TELLEIRO 12 Bajo,Gondomar,Pontevedra,36378,986352995,42.10767,-8.801174,Privada,Si,Non
36013795,CPR CEBEM,Vía Hispanidade 33,Vigo,Pontevedra,36203,986419899,42.231808,-8.728656,Privada,Si,Non
36018033,CPR Plurilingüe Vigo,Camiño Coto do Coello 7,Redondela,Pontevedra,36812,986400762,42.28642,-8.64308,Privada,Si,Non
27011718,CPR Belarmino Fernández Iglesias,Ribas,Sober,Lugo,27466,982460469,42.46399,-7.6182218,Privada,Si,Non
15021974,EFAG Fonteboa,Rúa FEIRA NOVA s/n,Coristanco,Coruña (A),15147,981733051,43.187775,-8.751426,Privada,Si,Non
15013461,CPR San José,Avenida da Coruña 25,Pontedeume,Coruña (A),15601,981430063,43.404137,-8.165578,Privada,Si,Non
15009470,CPR Loyola,Curros Enriquez 8,Mugardos,Coruña (A),15620,981470265,43.458588,-8.249745,Privada,Si,Non
36014209,CPR Plurilingüe Andersen Augalonga,Camiño Escola Andersen 28,Vigo,Pontevedra,36315,986469412,42.161575,-8.72278,Privada,Si,Non
36011750,CPR Plurilingüe Don Bosco,"Rúa Estrada, 5 - Poligono de Coia",Vigo,Pontevedra,36209,986231149,42.220337,-8.741652,Privada,Si,Non
36011385,CPR Ntra. Señora de la Esperanza,Rúa Cambeses 18,Vigo,Pontevedra,36214,986274994,42.228264,-8.684059,Privada,Si,Non
36011257,CPR El Pilar,Rúa Venezuela 20,Vigo,Pontevedra,36203,986420022,42.233284,-8.722195,Privada,Si,Non
36010897,CPR Santa Cristina,Rúa Portela 87,Vigo,Pontevedra,36214,986251309,42.2276,-8.6975565,Privada,Si,Non
36010435,CPR Plurilingüe El Castro,"Gran Via, 171-173",Vigo,Pontevedra,36210,986481762,42.221592,-8.727478,Privada,Si,Non
36010216,CPR Plurilingüe Divino Salvador,Estrada ó Bao 49,Vigo,Pontevedra,36330,986490320,42.194214,-8.778843,Privada,Si,Non
36009147,CPR Santiago Apostol,A Montesiña,Soutomaior,Pontevedra,36691,986700086,42.336918,-8.58588,Privada,Si,Non
36006997,CPR Santo Tomás,"A Florida, Torneiros",Porriño (O),Pontevedra,36410,986337614,42.161743,-8.637346,Privada,Si,Non
36006705,CPR Plurilingüe Ntra. Sra. de los Dolores,"Rúa Alfonso XIII, 12 E 2 2-12",Pontevedra,Pontevedra,36002,986856650,42.432285,-8.651594,Privada,Si,Non
36005919,CPR Plurilingüe Ángel de la Guarda,Priegue (San Mamede),Nigrán,Pontevedra,36391,986368073,42.165783,-8.796778,Privada,Si,Non
36004113,CPR Plurilingüe Sagrado Corazón,Rúa Penatoares 1,Lalín,Pontevedra,36500,986780026,42.663914,-8.108548,Privada,Si,Non
36003996,CPR Plurilingüe San José,Camiño de Curras 2,Guarda (A),Pontevedra,36780,986611165,41.905815,-8.866154,Privada,Si,Non
27006255,CPR Plurilingüe Divino Maestro,Rúa Portugal 45,Lugo,Lugo,27004,982216844,43.01495,-7.567338,Privada,Si,Non
27006231,CPR Plurilingüe Divina Pastora,Praza da Milagrosa 10,Lugo,Lugo,27003,982214957,43.019318,-7.5649133,Privada,Si,Non
15020489,CPR Plurilingüe Montespiño,Rúa Montespiño 10,Culleredo,Coruña (A),15191,981284311,43.31704,-8.412417,Privada,Si,Non
15015779,CPR Plurilingüe Ntra.Sra. de los Remedios,Rúa das Orfas 5,Santiago de Compostela,Coruña (A),15703,981585850,42.877968,-8.543435,Privada,Si,Non
15014520,CPR Galaxia,Rúa Estatuto s/n,Ribeira,Coruña (A),15960,981871242,42.55432,-8.996644,Privada,Si,Non
15006882,CPR Valle Inclán I,Estrada de Xoane n.170-172,Ferrol,Coruña (A),15405,981330140,43.49623,-8.235986,Privada,Si,Non
15006390,CPR Plurilingüe Jesús Maestro,Rúa EMILIO ANTON N.9,Ferrol,Coruña (A),15401,981351318,43.48132,-8.241409,Privada,Si,Non
15004770,CPR Plurilingüe Esclavas Sagrado Corazón de Jesús,Rúa Paseo de Ronda 57,Coruña (A),Coruña (A),15011,981251800,43.36999,-8.415335,Privada,Si,Non
15004526,CPR Plurilingüe Sagrado Corazón,Rúa Mª Ana Mogas Fontcuberta 9,Coruña (A),Coruña (A),15008,981293250,43.328648,-8.404995,Privada,Si,Non
36024574,CEEPR Princesa Letizia,Rúa DUQUE DE TERRANOVA 7,Vilagarcía de Arousa,Pontevedra,36600,986565334,42.5903,-8.772567,Privada,Si,Non
36017031,CEEPR Santísimo Cristo del Amor,"Rúa TORNEIROS - RIBEIRA, POL.III 24 A B",Porriño (O),Pontevedra,36410,986332672,42.15237,-8.629241,Privada,Si,Non
15004861,CEEPR Nosa Señora De Lourdes - Aspronaga,Rúa Perez Lugin 10,Coruña (A),Coruña (A),15011,981251188,43.366154,-8.416363,Privada,Si,Non
36011312,CPR San Fermín,Travesa Vigo 96,Vigo,Pontevedra,36206,986272195,42.236946,-8.703123,Privada,Si,Non
27013624,CPR Landro-Viveiro,Rúa Nicolas Cora 60,Viveiro,Lugo,27850,982560906,43.6614,-7.592787,Privada,Si,Non
27006358,CPR Plurilingüe La Milagrosa,Praza de Ferrol 21,Lugo,Lugo,27001,982242010,43.013874,-7.5576763,Privada,Si,Non
15021883,CEIP de Vite I,Avenida BURGO DAS NACIONS s/n,Santiago de Compostela,Coruña (A),15705,981585908,42.891018,-8.54292,Pública,Non,Si
15020911,CPI Plurilingüe de Vedra,Avenida do Mestre Manuel Gomez,Vedra,Coruña (A),15885,981503034,42.773907,-8.483543,Pública,Non,Si
36002359,IES Antón Losada Diéguez,Rúa da Cultura s/n,Estrada (A),Pontevedra,36680,986570336,42.69289,-8.505112,Pública,Non,Si
36005774,CEIP Humberto Juanes,"Rúa Curros Enriquez, 2 (Vilamean)",Nigrán,Pontevedra,36350,986366052,42.14092,-8.807666,Pública,Non,Si
32016467,IES Sección de Sobradelo-Carballeda,"Rúa Candis, s/n (Sobradelo)",Carballeda de Valdeorras,Ourense,32330,988335093,42.41732,-6.9256997,Pública,Non,Si
36019980,ESMU Municipal de Vila de Cruces (Art. de Merza),Concello de Vila de Cruces,Vila de Cruces,Pontevedra,36590,986582017,42.791904,-8.169091,Pública,Non,Non
36016085,CMUS Superior de Vigo,Rúa Manuel Olivie 23,Vigo,Pontevedra,36203,986471144,42.22927,-8.723361,Pública,Non,Si
27016455,IES Sanxillao,Avenida DAS FONTIÑAS 171,Lugo,Lugo,27002,982252016,43.004913,-7.546599,Pública,Non,Si
36009524,CEP Pedro Caselles Beltrán,Tomiño (Santa María),Tomiño,Pontevedra,36740,986622153,41.98758,-8.749735,Pública,Non,Si
15020544,IES de Ortigueira,Rúa Constitución s/n,Ortigueira,Coruña (A),15330,981400100,43.68618,-7.8548384,Pública,Non,Si
36020040,ESMU Municipal do Porriño,Rúa Fernandez Areal s/n,Porriño (O),Pontevedra,36400,986337624,42.159046,-8.619325,Pública,Non,Non
15005521,CEIP Ramón de la Sagra,Ronda de Camilo Jose Cela 4,Coruña (A),Coruña (A),15008,981280208,43.3461,-8.404605,Pública,Non,Si
32016765,CIFP Portovello,Rúa Luís Trabazos (As Lagoas) 1,Ourense,Ourense,32004,988232649,42.346245,-7.858226,Pública,Non,Si
32001683,IES Martaguisela,Rúa A Coruña 22,Barco de Valdeorras (O),Ourense,32300,988320931,42.415615,-6.9933877,Pública,Non,Si
36020039,ESMU Municipal da Estrada,"Avenida Benito Vigo, 94 - 3",Estrada (A),Pontevedra,36680,986572492,42.688187,-8.485438,Pública,Non,Non
32016649,EDANPR Nati Fleta,"Rúa Curros Enriquez, 17 - 1º",Ourense,Ourense,32003,988372644,42.3432,-7.8630996,Privada,Non,Non
36018677,IES Luís Seoane,"Rúa LUXEMBURGO, S/N (MONTE PORREIRO)",Pontevedra,Pontevedra,36162,986857700,42.447865,-8.621576,Pública,Non,Si
15022127,CEIP da Igrexa,Rúa A IGREXA- BRENS,Cee,Coruña (A),15299,607612532,42.94885,-9.173918,Pública,Non,Si
15027873,IES Afonso X O Sabio,Rúa Río Sil 9,Cambre,Coruña (A),15660,981651025,43.30137,-8.356079,Pública,Non,Si
36024173,CRA María Zambrano,Rúa Escolas Pías s/n Baixo,Rosal (O),Pontevedra,36770,986610335,41.919075,-8.83365,Pública,Non,Si
15008039,CPI Cernadas de Castro,A Silva,Lousame,Coruña (A),15214,981822010,42.773563,-8.85692,Pública,Non,Si
27002997,CPI Plurilingüe Virxe do Monte,Feira do Monte,Cospeito,Lugo,27377,982520046,43.234467,-7.559307,Pública,Non,Si
36018173,IES de Teis,Avenida de Galicia 101,Vigo,Pontevedra,36216,986373811,42.251423,-8.690083,Pública,Non,Si
15025712,IES Antonio Fraguas Fraguas,Rúa Londres 10,Santiago de Compostela,Coruña (A),15703,981588498,42.881245,-8.530136,Pública,Non,Si
36024306,CMUS Profesional de Tui,Avenida  da Concordia s/n,Tui,Pontevedra,36700,986603625,42.05189,-8.642849,Pública,Non,Non
15025244,CPR Radio ECCA,Rúa Bugalla Marquesi,Coruña (A),Coruña (A),15008,981293658,43.345894,-8.4090185,Privada,Non,Non
15027319,IES de Sar,Rúa BERNARDO BARREIRO DE V.V. s/n,Santiago de Compostela,Coruña (A),15702,981563321,42.87447,-8.540165,Pública,Non,Si
36000405,CPI Alfonso VII,Rúa Jose Salgado 18,Caldas de Reis,Pontevedra,36650,986540137,42.60395,-8.637249,Pública,Non,Si
15027770,IES A Sardiñeira,Avenida da Sardiñeira,Coruña (A),Coruña (A),15007,981247316,43.34991,-8.41622,Pública,Non,Si
15027307,IES Isidro Parga Pondal,Muiño da Pintura,Carballo,Coruña (A),15100,981756808,43.221916,-8.69084,Pública,Non,Si
15001471,CEIP Praia Xardín,Rúa Praia Xardin s/n,Boiro,Coruña (A),15930,981845425,42.642673,-8.891673,Pública,Non,Si
32014501,CEIP Rodolfo Núñez Rodríguez,Rúa O Toural s/n,Vilardevós,Ourense,32616,988417003,41.909332,-7.31126,Pública,Non,Si
36019566,IES de Chapela,Camiño do Penisal 29,Redondela,Pontevedra,36320,986453330,42.266346,-8.66774,Pública,Non,Si
36018872,EPAPU Río Lérez,Avenida de Buenos Aires 26,Pontevedra,Pontevedra,36002,986861586,42.433292,-8.638966,Pública,Non,Si
27006000,CEIP Juan Rey,Campo do Tremoal s/n,Lourenzá,Lugo,27760,982121060,43.468716,-7.296676,Pública,Non,Si
15020568,CEIP Plurilingüe Labaca,"Rúa Juan Florez, 114-116",Coruña (A),Coruña (A),15005,981274019,43.360394,-8.4066925,Pública,Non,Si
36010587,CEIP de Sárdoma-Moledo,"Rúa do Marco, 30 (Moledo)",Vigo,Pontevedra,36214,986421490,42.207596,-8.70725,Pública,Non,Si
36014878,CEIP de Conmeniño,Meloxo s/n,Grove (O),Pontevedra,36989,986731814,42.487354,-8.874421,Pública,Non,Si
15027976,IES Poeta Añón,Rúa Poeta Añón 21,Outes,Coruña (A),15230,981850637,42.843327,-8.912231,Pública,Non,Si
36001343,CEIP San Xoán Bautista,"Rúa das Longas, 23 (Cerdedo)",Cerdedo,Pontevedra,36130,986753053,42.53356,-8.389037,Pública,Non,Si
32011305,CPI Plurilingüe Tomás de Lemos,Rúa do Ribeiro s/n,Ribadavia,Ourense,32400,988470239,42.29635,-8.141137,Pública,Non,Si
15026571,CPR Cofisad,Rúa Jose Luis Bugallal Marchesi 7,Coruña (A),Coruña (A),15008,981151936,43.34646,-8.4091015,Privada,Non,Non
15027253,CEIP Isaac Díaz Pardo,"Avenida Ribados, s/n (Carcabelos)",Culleredo,Coruña (A),15670,981663514,43.312576,-8.371925,Pública,Non,Si
15005026,CEIP Sanjurjo de Carricarte,Praza San Xose Monte Alto s/n,Coruña (A),Coruña (A),15002,981202120,43.37972,-8.405593,Pública,Non,Si
15022796,EEI de Tállara,Rúa Sanguiñal s/n,Lousame,Coruña (A),15214,981823132,42.74859,-8.868252,Pública,Non,Si
32008033,CEIP Plurilingüe de Luíntra,Carretera de San Estevo,Nogueira de Ramuín,Ourense,32160,988201047,42.41026,-7.7235174,Pública,Non,Si
15005014,CEIP Raquel Camacho,Rúa ANTONIO PEDREIRA RIOS 13-15,Coruña (A),Coruña (A),15010,981257154,43.36339,-8.4244,Pública,Non,Si
36014763,EEI de Romariz,Soutomaior (San Salvador),Soutomaior,Pontevedra,36691,986705568,42.341667,-8.566123,Pública,Non,Si
36009949,CEIP Javier Sensat,"Rúa Javier Sensat, 8 (O Castañal)",Vigo,Pontevedra,36208,986241150,42.220936,-8.762107,Pública,Non,Si
15026111,CRA de Narón,Lugar San Xiao s/n,Narón,Coruña (A),15578,981388782,43.530693,-8.16472,Pública,Non,Si
15023338,IES Praia Barraña,Avenida Compostela s/n,Boiro,Coruña (A),15930,981846054,42.642673,-8.893068,Pública,Non,Si
15001151,EMUSPR de Vedra,Santa Cruz de Ribadulla,Vedra,Coruña (A),15880,981512291,42.779552,-8.426632,Privada,Non,Non
15027411,IES de Cacheiras,Costenla 36,Teo,Coruña (A),15883,981806332,42.819927,-8.555699,Pública,Non,Si
36011798,IES Alexandre Bóveda,Rúa Cuntis s/n,Vigo,Pontevedra,36209,986292812,42.215294,-8.750545,Pública,Non,Si
36012742,CEIP de Vilaxoán,Rúa Cultura 4,Vilagarcía de Arousa,Pontevedra,36611,986503734,42.58271,-8.785028,Pública,Non,Si
36003807,CEIP Rosalía de Castro,Rúa Rosalia de Castro 22,Grove (O),Pontevedra,36980,986730823,42.492416,-8.867726,Pública,Non,Si
15014571,EEI Deán Grande,Avenida da Coruña,Ribeira,Coruña (A),15968,673437011,42.566956,-8.987739,Pública,Non,Si
36015135,CEIP A Sangriña,Paseo de Portugal 19,Guarda (A),Pontevedra,36789,986611045,41.900898,-8.862683,Pública,Non,Si
27013296,CEIP Manuel Mato Vizoso,Rúa Cuart de Poblet,Vilalba,Lugo,27800,982510502,43.292603,-7.682005,Pública,Non,Si
36018859,EEI Modia,Vilariño (Santo Adrián),Cambados,Pontevedra,36633,686147149,42.524147,-8.803552,Pública,Non,Si
32015669,CEIP Mestre Vide,Paseo Maestro Vide 4,Ourense,Ourense,32004,988238551,42.343945,-7.8607635,Pública,Non,Si
15015834,E.ART Mestre Mateo,Rúa Virxe da Cerca 32,Santiago de Compostela,Coruña (A),15703,981587757,42.881073,-8.540342,Pública,Non,Si
36024549,EMUSPR artística de Arcade,Lugar Barroncas,Soutomaior,Pontevedra,36991,,42.340103,-8.606943,Privada,Non,Non
32009116,IES 12 de Outubro,Avenida Santiago 2,Ourense,Ourense,32001,988213722,42.348736,-7.86815,Pública,Non,Si
36015020,CEIP de Randufe,As Chans do Carrasco,Tui,Pontevedra,36713,986600905,42.05536,-8.667846,Pública,Non,Si
15025281,CEIP de Olveira,Rúa A Igrexa 75,Ribeira,Coruña (A),15969,981865300,42.587135,-9.0485935,Pública,Non,Si
36013588,CPI do Toural,O Toural 34,Vilaboa,Pontevedra,36141,986708341,42.359856,-8.633811,Pública,Non,Si
15024586,EEI da Fonte Moura,Vigo (Santa María),Cambre,Coruña (A),,609509390,43.25567,-8.309359,Pública,Non,Si
15027897,CIFP Paseo das Pontes,Rúa San Pedro de Mezonzo 4,Coruña (A),Coruña (A),15004,981160196,43.362698,-8.415876,Pública,Non,Si
15013783,EEI de Caamaño,Rúa da Cruz,Porto do Son,Coruña (A),15996,687348640,42.65465,-9.0290985,Pública,Non,Si
15024598,EEI de Gontade,Gontade,Carballo,Coruña (A),15109,981756198,43.178112,-8.692932,Pública,Non,Si
15019086,CEIP Labarta Pose,"Rúa Mestre Platas, s/n (Baio Pequeno)",Zas,Coruña (A),15150,981718052,43.149273,-8.959065,Pública,Non,Si
36013886,EEI Saiar,Sequeiros,Caldas de Reis,Pontevedra,36656,617487384,42.597363,-8.689606,Pública,Non,Si
36010423,CEIP Valle-Inclán,Rúa Lavadores 16,Vigo,Pontevedra,36214,986273432,42.223305,-8.699663,Pública,Non,Si
15026765,CEIP Milladoiro,Rúa VENTORRILLO s/n,Malpica de Bergantiños,Coruña (A),15113,981707009,43.32086,-8.817515,Pública,Non,Si
15011105,CEIP de Mesón do Vento,O Meson do Vento,Ordes,Coruña (A),15689,981692803,43.14966,-8.380702,Pública,Non,Si
36008155,CPI Plurilingüe de Rodeiro,Rúa B 14,Rodeiro,Pontevedra,36530,986790028,42.648533,-7.9455667,Pública,Non,Si
32015581,EPAPU de Ourense,Rúa Alvarez de Sotomayor 4,Ourense,Ourense,32002,988243834,42.338463,-7.873163,Pública,Non,Si
15007266,CEIP Areouta,Sardiñeiro de Abaixo,Fisterra,Coruña (A),15153,981743608,42.943996,-9.234487,Pública,Non,Si
27006954,CEIP Álvaro Cunqueiro Mora,Avenida Buenos Aires s/n,Mondoñedo,Lugo,27740,982521062,43.431076,-7.3589087,Pública,Non,Si
15032595,CPR CENP,Avenida de La Habana 6-7,Coruña (A),Coruña (A),15011,,43.367973,-8.415406,Privada,Non,Non
36006377,CEIP Álvarez Limeses,Rúa Joaquin Costa 13,Pontevedra,Pontevedra,36001,986851780,42.429024,-8.640694,Pública,Non,Si
36014982,EEI O Grupo,Rúa CONCEPCIÓN ARENAL 40,Marín,Pontevedra,36900,986883151,42.39174,-8.697536,Pública,Non,Si
15003807,CEIP de Bormoio-Agualada,Campo da feira s/n,Coristanco,Coruña (A),15148,981734532,43.157658,-8.803804,Pública,Non,Si
15005336,CEE Nosa Señora do Rosario,Rúa Ronda Camilo Jose Cela 2,Coruña (A),Coruña (A),15008,981283496,43.347874,-8.403603,Pública,Non,Si
32016455,IES Julio Prieto Nespereira,Rúa do Instituto 1,Ourense,Ourense,32001,988218570,42.3564,-7.862051,Pública,Non,Si
32006747,CEIP de Manzaneda,Rúa Do Pendon s/n,Manzaneda,Ourense,32781,988333050,42.308815,-7.232287,Pública,Non,Si
15005038,CEIP de Prácticas,Paseo de Ronda 47,Coruña (A),Coruña (A),15011,981255330,43.36954,-8.421216,Pública,Non,Si
36002347,CEIP Pérez Viondi,Rúa PEREZ VIONDI 46,Estrada (A),Pontevedra,36680,986570054,42.687088,-8.491589,Pública,Non,Si
36018422,CEIP Plurilingüe de Atios,O Covelo,Porriño (O),Pontevedra,36418,986330715,42.15016,-8.616329,Pública,Non,Si
36018185,CEIP Plurilingüe Pintor Laxeiro,Rúa Federico Garcia Lorca 18,Vigo,Pontevedra,36210,986238043,42.218636,-8.73782,Pública,Non,Si
15027691,IES de Porto do Son,Rúa Fraga de Novio s/n,Porto do Son,Coruña (A),15997,981767494,42.731667,-8.990914,Pública,Non,Si
15019281,CPI de Zas,Rúa de Galicia 49,Zas,Coruña (A),15850,981718358,43.10595,-8.917638,Pública,Non,Si
32020859,EMUSPR EMBC,"Rúa Manuel Lezón 1, A Rapela-Casa da Musica 1",Celanova,Ourense,,,42.150272,-7.958531,Privada,Non,Non
36014428,IES Val Miñor,Rúa Paradellas 15,Nigrán,Pontevedra,36350,986366050,42.136154,-8.800783,Pública,Non,Si
32009165,CEIP As Mercedes,Praza das Mercedes,Ourense,Ourense,32005,988243581,42.337856,-7.8623915,Pública,Non,Si
32010601,CEIP Plurilingüe Manuel Bermúdez Couso,Avenida do Castelo s/n,Pobra de Trives (A),Ourense,32780,988330029,42.337997,-7.2543564,Pública,Non,Si
36020350,IES Pintor Colmeiro,Estrada de Pontevedra - As Ferreiras s/n,Silleda,Pontevedra,36540,986580904,42.688843,-8.249326,Pública,Non,Si
36015950,CEIP da Espiñeira-Aldán,Rúa Espiñeira 4,Cangas,Pontevedra,36946,986329509,42.28547,-8.81321,Pública,Non,Si
36016668,CEP de Caldelas,O Foxo,Tui,Pontevedra,36721,986629064,42.06333,-8.568443,Pública,Non,Si
36001975,CEIP Pío Cabanillas Gallas,Rúa O Castro,Dozón,Pontevedra,36518,986780472,42.56832,-8.047971,Pública,Non,Si
36018446,CEIP da Armenteira,Lugar Vilar 64-A,Meis,Pontevedra,36192,986718081,42.468822,-8.741877,Pública,Non,Si
32016790,IES Castro de Baronceli,Rúa CAMIÑO TUELAS 9,Verín,Ourense,32600,988411212,41.926105,-7.4404745,Pública,Non,Si
15027800,IES Imaxe e Son,Rúa Someso 6,Coruña (A),Coruña (A),15008,981173181,43.338238,-8.413854,Pública,Non,Si
15026789,CEIP Baíñas,Baíñas (Santo Antoíño),Vimianzo,Coruña (A),15127,981741101,43.02998,-9.023679,Pública,Non,Si
36020374,IES Valadares,Rúa Clara Campoamor s/n,Vigo,Pontevedra,36315,986465143,42.167057,-8.707757,Pública,Non,Si
36024860,CAD COEN Centros de Formación,Rúa Estrada 24,Pontevedra,Pontevedra,,,0.0,0.0,Privada,Non,Non
15027617,CMUS Profesional Xan Viaño,Avenida DO MAR - CARANZA 2-4,Ferrol,Coruña (A),15406,981333317,43.48465,-8.21067,Pública,Non,Si
15002591,IES Monte Neme,Fontecaldeira s/n,Carballo,Coruña (A),15100,981701159,43.21229,-8.704391,Pública,Non,Si
15032261,ESMU Municipal  de Ordes,Ordes (Santa María),Ordes,Coruña (A),15680,981682312,43.07817,-8.410812,Pública,Non,Non
15032145,IES de Pastoriza,"Rúa do Lagarto, esq. Furoca s/n",Arteixo,Coruña (A),15140,981647517,43.33369,-8.463442,Pública,Non,Si
36013370,EEI de Samieira,Camiño Tarrío,Poio,Pontevedra,36992,986741219,42.420288,-8.739447,Pública,Non,Si
36019050,IES de Beade,Camiño de Outeiro 10,Vigo,Pontevedra,36312,986200111,42.201668,-8.715752,Pública,Non,Si
15021317,CPI Pecalama,Pontepedra,Tordoia,Coruña (A),15683,981690054,43.08812,-8.552492,Pública,Non,Si
15032649,EEI do Milladoiro,Travesa do Porto (Milladoiro) s/n,Ames,Coruña (A),15895,981538463,42.84677,-8.579979,Pública,Non,Si
15002578,CEIP Fogar,Rúa Vila de Ordes s/n,Carballo,Coruña (A),15100,981700294,43.2191,-8.684172,Pública,Non,Si
15027125,IES de Viós,Lugar de Poceiro 8,Abegondo,Coruña (A),15318,981673195,43.202614,-8.285016,Pública,Non,Si
36015007,CEIP de Cedeira,Estrada do Cruceiro 75,Redondela,Pontevedra,36812,986401564,42.276722,-8.624953,Pública,Non,Si
27013314,IES Santiago Basanta Silva,Cidade Cultural M. Fraga Iribarne,Vilalba,Lugo,27800,982512160,43.29359,-7.680975,Pública,Non,Si
15025611,IES Monte das Moas,Rúa José María Hernansaez 23,Coruña (A),Coruña (A),15009,981284377,43.350418,-8.394198,Pública,Non,Si
27013636,IES María Sarmiento,Rúa Misericordia 58,Viveiro,Lugo,27850,982560449,43.6678,-7.6013913,Pública,Non,Si
27010064,CEIP Rosalía de Castro,Avenida Rio Azumara s/n,Pol,Lugo,27270,982345063,43.134624,-7.3534017,Pública,Non,Si
36024495,CRA de Vilaboa Consuelo González Martínez,Rúa TOURAL 13,Vilaboa,Pontevedra,36141,618554594,42.35981,-8.636504,Pública,Non,Si
15025670,CEIP Plurilingüe Isidro Parga Pondal,"Camiño do Saber, s/n (Porto de Santa Cruz)",Oleiros,Coruña (A),15179,981614976,43.3472,-8.342604,Pública,Non,Si
36004708,CPI de Mosteiro-Meis,Mosteiro,Meis,Pontevedra,36637,986712057,42.518845,-8.705356,Pública,Non,Si
36019803,EDANPR Maite Quiñones,"Rúa Longan, 5 - 1º E",Cangas,Pontevedra,36940,986303565,42.265495,-8.775812,Privada,Non,Non
36020234,IES de Barro,Lugar Outeiro 9 D,Barro,Pontevedra,36194,986711522,42.52266,-8.634175,Pública,Non,Si
36004460,CEIP de Ardán,Ardán (Santa María),Marín,Pontevedra,36912,986703436,42.349728,-8.745311,Pública,Non,Si
27015301,CEIP de Cervo,"Lugar PEDROUZO, S/N (CERVO)",Cervo,Lugo,27891,982557601,43.671658,-7.413186,Pública,Non,Si
15019621,EEI de Comiáns,Nosa Señora de Comians,Laracha (A),Coruña (A),15045,981608978,43.190956,-8.571461,Pública,Non,Si
36018367,CMUS Profesional Reveriano Soutullo,Rúa Castiñeira 57,Ponteareas,Pontevedra,36860,986641616,42.173313,-8.507174,Pública,Non,Non
36018884,EPAPU Berbés,Rúa MARQUÉS DE VALTERRA 8 1,Vigo,Pontevedra,36202,986225579,42.233746,-8.732141,Pública,Non,Si
15001136,IES Francisco Aguiar,Avenida DA CORUÑA 15,Betanzos,Coruña (A),15300,981772451,43.28249,-8.217094,Pública,Non,Si
36015986,CPR Los Cerezos,Rúa Don Gonzalo 11,Pontevedra,Pontevedra,36001,986852792,42.43262,-8.644586,Privada,Non,Non
36016814,EEI do Con,"Rúa Navas de Tolosa, s/n (O Con)",Moaña,Pontevedra,36954,986312018,42.276985,-8.737074,Pública,Non,Si
15025633,CEIP Os Casais,Lugar da Armada,Fene,Coruña (A),15520,981360826,43.44978,-8.190189,Pública,Non,Si
15004988,CEIP Eusebio da Guarda,Praza de Pontevedra 21,Coruña (A),Coruña (A),15003,981229264,43.36862,-8.407212,Pública,Non,Si
27009608,CEIP O Salvador,Pastoriza (O Salvador),Pastoriza (A),Lugo,27287,982332200,43.301712,-7.3491883,Pública,Non,Si
36019441,CEIP de Petelos,Petelos (San Mamede),Mos,Pontevedra,36416,986336825,42.19571,-8.632847,Pública,Non,Si
36005555,CEIP Marquesa do Pazo da Mercé,Eira da Liñaza s/n,Neves (As),Pontevedra,36440,986648162,42.085297,-8.413542,Pública,Non,Si
36009032,CEIP de Bandeira,Rúa Devesa 6,Silleda,Pontevedra,36570,986585356,42.72613,-8.304521,Pública,Non,Si
36019670,IES do Castro,Rúa Jose Gomez Posada Curros 1,Vigo,Pontevedra,36203,986422974,42.227753,-8.726239,Pública,Non,Si
27014847,CEIP Plurilingüe do Corgo,Estrada Nacional VI s/n,Corgo (O),Lugo,27163,982302156,42.936806,-7.4092484,Pública,Non,Si
27003655,CPI Poeta Uxío Novoneira,Seoane,Folgoso do Courel,Lugo,27324,982433120,42.635918,-7.1543097,Pública,Non,Si
27006528,CIFP As Mercedes,Avenida de Madrid 75,Lugo,Lugo,27002,982221212,42.998745,-7.5461054,Pública,Non,Si
15025682,IES Fraga do Eume,Rúa Ricardo Sanchez 3,Pontedeume,Coruña (A),15600,981432004,43.406437,-8.16811,Pública,Non,Si
36013126,ESMU Municipal das Neves,Rúa Entrecines 10,Neves (As),Pontevedra,36440,986648001,42.08944,-8.419376,Pública,Non,Non
32016443,CMUS Profesional de Ourense,Rúa Pablo Iglesias s/n - Lagunas,Ourense,Ourense,32004,988391047,42.3484,-7.857601,Pública,Non,Si
15011269,EEI Montaos,A Igrexa,Ordes,Coruña (A),15689,638239052,43.03522,-8.426246,Pública,Non,Si
27016315,IES de Becerreá,Rúa Castelo s/n,Becerreá,Lugo,27640,982360505,42.858814,-7.166058,Pública,Non,Si
36003388,CEIP Doutor Suárez,Rúa das Escolas 7,Fornelos de Montes,Pontevedra,36847,986768438,42.341194,-8.452595,Pública,Non,Si
15032534,CADF Real Club Deportivo da Coruña,Rúa AGRA DE MARCÉS s/n,Abegondo,Coruña (A),15318,981647941,43.25067,-8.283775,Privada,Non,Non
15032200,CMUS Profesional de Ribeira,Rúa Miguel Rodriguez Bautista 21,Ribeira,Coruña (A),15960,981873204,42.557198,-8.994745,Pública,Non,Non
15002050,CEIP O Areal,Rúa Eugenio Lopez s/n,Camariñas,Coruña (A),15123,981736202,43.133926,-9.182803,Pública,Non,Si
32014331,ESMU Municipal de Barbadás,Rúa da Presa s/n,Barbadás,Ourense,32002,988246620,42.317738,-7.884168,Pública,Non,Non
36019839,EMUSPR Coppelia,Rúa Pi y Margall 61,Vigo,Pontevedra,36202,986425193,42.233467,-8.730204,Privada,Non,Non
27015955,EOI de Lugo,Ronda Xosé Castiñeiras s/n 1,Lugo,Lugo,27002,982284893,42.99997,-7.545762,Pública,Non,Si
15013989,CEIP de Queiruga,Queiruga (Santo Estevo),Porto do Son,Coruña (A),15998,981768238,42.67588,-9.025372,Pública,Non,Si
36016565,EEI de Aralde Sobrán,Sobrán (San Martiño De Fóra),Vilagarcía de Arousa,Pontevedra,36611,986561404,42.564,-8.801047,Pública,Non,Si
27001816,CEIP Veleiro-Docampo,Avenida da Terra Cha (Castro Ribeiras de Lea),Castro de Rei,Lugo,27260,982310109,43.14835,-7.490112,Pública,Non,Si
15016085,CEIP Arquitecto Casas Novoa,A SIONLLA DE ABAIXO,Santiago de Compostela,Coruña (A),15884,981888044,42.92751,-8.483056,Pública,Non,Si
36015548,EEI de Ventosela,Camiño do Requeixo 6,Redondela,Pontevedra,36818,986400811,42.30134,-8.584769,Pública,Non,Si
27011639,CEIP Otero Pedrayo,Rúa Rosalia de Castro s/n,Rábade,Lugo,27370,982390146,43.12269,-7.631767,Pública,Non,Si
15025724,CEIP Os Tilos,Rúa Ameneiro 21,Teo,Coruña (A),15894,981801408,42.843357,-8.53877,Pública,Non,Si
36005129,EFOG Divino Maestro,Rúa Calvo Sotelo 4,Mondariz-Balneario,Pontevedra,36890,-,42.225307,-8.4696865,Pública,Non,Si
32014151,CEIP Plurilingüe de Vilar de Barrio,Vilar de barrio (San PedrO Fiz),Vilar de Barrio,Ourense,32702,988449043,42.160778,-7.6082306,Pública,Non,Si
15025050,CEIP Ramón María del Valle-Inclán,Avenida R.Mª Valle-Inclan,Oleiros,Coruña (A),15172,981636754,43.3355,-8.363434,Pública,Non,Si
32016030,E.ART Antonio Failde,Avenida da Universidade s/n - La Cuña,Ourense,Ourense,32005,988238365,42.316982,-7.8552594,Pública,Non,Si
32016285,IES de Vilamarín,Rúa BORULFE s/n,Vilamarín,Ourense,32140,988286013,42.45236,-7.905148,Pública,Non,Si
36020106,CPR Seforma,"Rúa Areal, 68-70",Vigo,Pontevedra,36201,986222215,42.238728,-8.715031,Privada,Non,Non
36013448,CIFP Manuel Antonio,"Avenida de Madrid, s/n - (Apartado 3138)",Vigo,Pontevedra,36214,986273800,42.214905,-8.680347,Pública,Non,Si
27013922,CEIP do Castro de Ouro,A Seara s/n,Alfoz,Lugo,27776,982558620,43.52702,-7.4191833,Pública,Non,Si
36020210,CPR Sanitex,Rúa Ramon y Cajal 16,Vigo,Pontevedra,36203,986410390,42.227848,-8.720666,Privada,Non,Non
15012742,CEIP Flavia,Rúa Carme s/n,Padrón,Coruña (A),15900,981810194,42.736435,-8.66406,Pública,Non,Si
15032613,EDANPR Carmen,Rúa Santa Teresa 2-4,Coruña (A),Coruña (A),15005,-,43.37704,-8.406272,Privada,Non,Non
15025487,CEIP Campomaior,Travesa de Campomaior s/n,Ordes,Coruña (A),15680,981681681,43.079655,-8.412578,Pública,Non,Si
15019323,CEIP Alborada,"Poligono de Elviña, 2ª Fase, s/n",Coruña (A),Coruña (A),15008,981243099,43.344715,-8.411252,Pública,Non,Si
15032777,"Cen. Pub. Esc.Especialistas Estación Naval A Graña, ESENGRA",Rúa Estación Naval de la Graña s/n,Ferrol,Coruña (A),15490,981336292,43.475533,-8.262341,Pública,Non,Non
27006449,CEIP Rosalía de Castro,Rúa Cambria s/n,Lugo,Lugo,27002,982221840,43.00411,-7.552286,Pública,Non,Si
27001440,CEIP Xosé Luís Taboada,A Barrela,Carballedo,Lugo,27520,982466133,42.536476,-7.8115315,Pública,Non,Si
36024124,EDANPR Susana Castro,"Rúa  Cronista Rodríguez Elías, 2 00",Vigo,Pontevedra,36209,986296968,42.211723,-8.747188,Privada,Non,Non
36018461,IES República Oriental do Uruguai,Rúa As Coutadas 54,Vigo,Pontevedra,36207,986272324,42.243347,-8.702951,Pública,Non,Si
36015093,CEIP San Tomé,Rúa Olmos 20,Cambados,Pontevedra,36630,986542001,42.509716,-8.812661,Pública,Non,Si
32016340,IES Aquis Querquernis,Rúa Outeiro s/n,Bande,Ourense,32840,988443157,42.032772,-7.9728246,Pública,Non,Si
36004095,CEIP Manuel Rivero,Rúa MARUJA GUTIÉRREZ,Lalín,Pontevedra,36500,986783936,42.65776,-8.10785,Pública,Non,Si
27005913,CPI Ramón Piñeiro,"Praza dos Reis, s/n (A Pobra de San Xiao)",Láncara,Lugo,27360,982543129,42.863792,-7.443657,Pública,Non,Si
15013163,EEI Fernández Varela,Rúa Castelao 3,Pobra do Caramiñal (A),Coruña (A),15940,981830708,42.604256,-8.9373455,Pública,Non,Si
15032789,Cen. Pub. Esc.Especialistas Antonio Escaño,Rúa Tejeras s/n,Ferrol,Coruña (A),15490,981399120,43.48385,-8.214726,Pública,Non,Non
27007259,IES Río Cabe,Rúa San Pedro s/n,Monforte de Lemos,Lugo,27400,982400812,42.52623,-7.507897,Pública,Non,Si
27003175,IES Val do Asma,Avenida de Monforte s/n,Chantada,Lugo,27500,982441602,42.607967,-7.7576566,Pública,Non,Si
27010891,CEIP Gregorio Sanz,Avenida Luarca 1,Ribadeo,Lugo,27700,982128848,43.53521,-7.0520535,Pública,Non,Si
15005701,CEIP Plurilingüe San Pedro de Visma,Rúa Lagares 12,Coruña (A),Coruña (A),15011,981269800,43.366093,-8.427844,Pública,Non,Si
36013710,EEI do Vao,O Vao,Poio,Pontevedra,36994,986873188,42.442455,-8.650149,Pública,Non,Si
36024161,CRA de Valga,"Lugar A TORRE, CAMPAÑA",Valga,Pontevedra,36645,986556777,42.70599,-8.665606,Pública,Non,Si
15027769,EMUSPR de Calo -Teo,Rebordelo s/n,Teo,Coruña (A),15895,981548379,42.82535,-8.5931225,Privada,Non,Non
36020453,EEI de Moreira,A Moreira,Gondomar,Pontevedra,36388,986360534,42.10712,-8.773473,Pública,Non,Si
36009998,CEIP de Mosteiro-Bembrive,"Estrada de Bembrive, 161 (Mosteiro) 161",Vigo,Pontevedra,36214,986417329,42.206203,-8.691035,Pública,Non,Si
15007655,CEIP de Caión,Rúa Insua s/n,Laracha (A),Coruña (A),15145,981604023,43.320366,-8.606031,Pública,Non,Si
32020847,EMUSPR Mestre Veneroni,"Rúa Redeondela, Casa da Cultura s/n",Ribadavia,Ourense,32800,,42.285618,-8.145408,Privada,Non,Non
15028002,CEIP de Pousada Carcacía,Carcacia,Padrón,Coruña (A),15914,981810302,42.74944,-8.597716,Pública,Non,Si
36019426,IES Coruxo,A Carrasqueira 68,Vigo,Pontevedra,36331,986460142,42.19793,-8.779598,Pública,Non,Si
15032571,CRA de Boqueixón-Vedra,Lugar VILAR - CENTRO SOCIOCULTURAL CAMILO JOSÉ CELA s/n,Boqueixón,Coruña (A),15881,616440471,42.798553,-8.468843,Pública,Non,Si
36024859,CAD CIP,Rúa Brasil 48,Vigo,Pontevedra,36204,,0.0,0.0,Privada,Non,Non
15020994,CPI de Viaño Pequeno,Viaño Pequeno,Trazo,Coruña (A),15687,981689038,43.02503,-8.517731,Pública,Non,Si
15032297,CEDA Liceo la Paz,Rúa Sebastián Martónez Risco 12,Coruña (A),Coruña (A),15009,,43.341507,-8.402049,Privada,Non,Non
36007242,CEIP de Viñas,Viñas 2,Poio,Pontevedra,36163,986872325,42.43308,-8.66465,Pública,Non,Si
36015810,CEIP Plurilingüe Sobreira-Valadares,"Estrada da Escola da Sobreira, 89 -A Sobreira",Vigo,Pontevedra,36315,986468189,42.16465,-8.708764,Pública,Non,Si
36024616,CRA de Ribadumia,A Costa,Ribadumia,Pontevedra,36636,666410195,42.52886,-8.740911,Pública,Non,Si
15032704,CPR Pelomanía,Avenida Castilla 44 baixo,Betanzos,Coruña (A),,981773524,43.27488,-8.207895,Privada,Non,Non
36001562,EMUSPR Unión de Guláns,O Casal 31,Ponteareas,Pontevedra,36861,986661197,42.154305,-8.538802,Privada,Non,Non
15014738,CPI Plurilingüe dos Dices,Os Dices,Rois,Coruña (A),15911,981804270,42.764404,-8.692546,Pública,Non,Si
15001367,CEIP Plurilingüe de Abanqueiro,Rúa Exipto s/n,Boiro,Coruña (A),15938,981848186,42.638462,-8.85969,Pública,Non,Si
15032182,ESDA Municipal A Fábrica,"Rúa  do Inglés, 11",Oleiros,Coruña (A),15172,981636598,43.335457,-8.365149,Pública,Non,Non
36024756,CEE de Panxón,"Camiño dos Lagos, 1 1",Nigrán,Pontevedra,36340,986383119,42.14645,-8.822868,Pública,Non,Si
36006730,IES Frei Martín Sarmiento,Avenida DE VIGO 23,Pontevedra,Pontevedra,36003,986852654,42.425774,-8.639766,Pública,Non,Si
36015500,EEI de Verducido,Verducido (San Martiño),Pontevedra,Pontevedra,36151,986879336,42.481236,-8.6192045,Pública,Non,Si
32015463,CEE Miño,Rúa Juan Fernández de Gres 13,Ourense,Ourense,32960,988238550,42.36458,-7.846027,Pública,Non,Si
15013291,CEIP Eduardo Pondal,Rúa A TRABE,Ponteceso,Coruña (A),15110,981714071,43.240246,-8.893363,Pública,Non,Si
15021755,IES Cabo Ortegal,Rúa POZO DE PEREIRA 22,Cariño,Coruña (A),15360,981405178,43.73842,-7.8785224,Pública,Non,Si
32015402,EEI de Santa Cruz,Santa Cruz da rabeda (Santa Cruz),San Cibrao das Viñas,Ourense,32911,639179024,42.28859,-7.797843,Pública,Non,Si
15003376,CPI Plurilingüe O Cruce,Campo da Feira,Cerceda,Coruña (A),15185,981685053,43.18873,-8.477755,Pública,Non,Si
36014684,EEI de Outeiro,Nespereira (San Martiño),Pazos de Borbén,Pontevedra,36817,986498003,42.254208,-8.581697,Pública,Non,Si
27006531,IES Lucus Augusti,Avenida Rodriguez Mourelo s/n,Lugo,Lugo,27002,982220968,43.006607,-7.55677,Pública,Non,Si
36008878,CEIP Plurilingüe Cruceiro,Vilalonga (San Pedro),Sanxenxo,Pontevedra,36990,986743141,42.443916,-8.835733,Pública,Non,Si
27020801,CEIP de Monterroso,Barrio dos Piñeiros 9,Monterroso,Lugo,27560,982377180,42.799545,-7.8312645,Pública,Non,Si
15026704,IES David Buján,Camiño dos Cacharros 1,Cambre,Coruña (A),15181,981613146,43.28671,-8.354805,Pública,Non,Si
15009071,CPI Castro Baxoi,Rúa Marismas s/n,Miño,Coruña (A),15630,981782708,43.35178,-8.207645,Pública,Non,Si
15032728,CPR PREMIR,Rúa PINTOR JUAN LUIS 1 baixo,Santiago de Compostela,Coruña (A),15702,981590198,42.8682,-8.547809,Privada,Non,Non
15011981,CEIP José María Lage,Rúa Pedro Castiñeiras s/n,Ortigueira,Coruña (A),15330,981400804,43.6869,-7.850413,Pública,Non,Si
15032561,CRA de Bergondo,Estrada A Coruña - Ferrol 12,Bergondo,Coruña (A),15165,981791896,43.3199,-8.233797,Pública,Non,Si
15020842,CEIP de Torrexallóns,Torrexallons,Laxe,Coruña (A),15119,981735550,43.187782,-9.008827,Pública,Non,Si
15027711,IES Leliadoura,Frións,Ribeira,Coruña (A),15967,981874633,42.553886,-9.005892,Pública,Non,Si
15006729,CEE Terra de Ferrol,San Pedro de Leixa s/n,Ferrol,Coruña (A),15405,981318801,43.510532,-8.214351,Pública,Non,Si
36008866,CEIP A Florida,Ricardo Santos 16,Sanxenxo,Pontevedra,36960,986720790,42.40297,-8.800532,Pública,Non,Si
15026030,IES Terra de Xallas,Rúa Rosalía de Castro s/n,Santa Comba,Coruña (A),15840,981880425,43.03502,-8.816558,Pública,Non,Si
15025074,CEIP da Igrexa,Rúa A Igrexa 45,Somozas (As),Coruña (A),15565,981404084,43.534332,-7.941581,Pública,Non,Si
36016589,EEI de Tremoedo,A Igrexa s/n,Vilanova de Arousa,Pontevedra,36628,610327701,42.544563,-8.78122,Pública,Non,Si
36000341,CEIP Plurilingüe A Pedra,Rúa A Pedra 26,Bueu,Pontevedra,36930,986320050,42.32063,-8.786356,Pública,Non,Si
15027496,EDANPR Armonía,"Rúa Teresa Herrera, 9 - 1º",Coruña (A),Coruña (A),15004,981210304,43.36717,-8.407884,Privada,Non,Non
15032790,CPR Estudios Superiores en Administración e Finanzas,Rúa Salvador de Madariaga 50,Oleiros,Coruña (A),,881878634,43.32407,-8.353478,Privada,Non,Non
36011592,IES Santa Irene,Praza de América 7,Vigo,Pontevedra,36211,986233799,42.22023,-8.73215,Pública,Non,Si
15032558,CAD Santa Apolonia de Santiago de Compostela,"Rúa Poza Real, A Rocha 5",Santiago de Compostela,Coruña (A),,981520273,42.86007,-8.567234,Privada,Non,Non
27013326,IES Lois Peña Novo,Rúa Quart de Poblet s/n,Vilalba,Lugo,27800,982510951,43.29304,-7.6832294,Pública,Non,Si
32015396,EEI de Noalla,Rúa Telleiro 13,San Cibrao das Viñas,Ourense,32915,988249320,42.28738,-7.836913,Pública,Non,Si
15019542,EEI da Igrexa,A Tarroeira,Ames,Coruña (A),15034,981884459,42.85296,-8.638422,Pública,Non,Si
15015861,IES Eduardo Pondal,Rúa Doctor Maceira 9,Santiago de Compostela,Coruña (A),15706,981522154,42.87106,-8.554419,Pública,Non,Si
15023405,CPI A Xunqueira,Avenida do Mar s/n,Fene,Coruña (A),15500,981343456,43.47765,-8.171715,Pública,Non,Si
15006778,CIFP Rodolfo Ucha Piñeiro,"Avenida Castelao, 64 (Caranza)",Ferrol,Coruña (A),15406,981321565,43.481163,-8.202045,Pública,Non,Si
27005056,CEIP Plurilingüe Santo Estevo de Parga,Rúa CERRADURA s/n,Guitiriz,Lugo,27305,982373034,43.16211,-7.8412127,Pública,Non,Si
32020628,CRA Amencer,Ventosela,Ribadavia,Ourense,32414,988472089,42.302895,-8.123392,Pública,Non,Si
27006401,CEIP Sagrado Corazón,Rúa Poligono Sagrado Corazon s/n,Lugo,Lugo,27003,982222974,43.0169,-7.5499034,Pública,Non,Si
15027733,IES de Arzúa,Rúa do Castro s/n,Arzúa,Coruña (A),15810,981500527,42.929825,-8.155364,Pública,Non,Si
15027401,CEIP Ana María Diéguez,Atalaia s/n,Rianxo,Coruña (A),15984,981862603,42.679123,-8.793674,Pública,Non,Si
15026509,CRA de Valdoviño,Casa da Cultura,Valdoviño,Coruña (A),15552,981487511,43.61239,-8.141175,Pública,Non,Si
15023090,IES Macías o Namorado,Rúa Agro do Medio s/n,Padrón,Coruña (A),15900,981817008,42.735424,-8.662155,Pública,Non,Si
15023053,CEIP Portofaro,"Rúa dos Templarios, 1 (O Graxal)",Cambre,Coruña (A),15679,981666756,43.31283,-8.356813,Pública,Non,Si
32015657,CEIP de Medeiros,Estrada San Cristovo s/n,Monterrei,Ourense,32618,988421604,41.902752,-7.5452013,Pública,Non,Si
15022115,EEI do Viso,San Mamede De Carnota (San Mamede),Carnota,Coruña (A),15293,635100169,42.851818,-9.094102,Pública,Non,Si
36017697,CEIP Escultor Acuña,Rúa A Estrada 10,Vigo,Pontevedra,36209,986239901,42.22101,-8.740782,Pública,Non,Si
15032005,CPR Castelao,Rúa Sinforiano Lopez 43,Coruña (A),Coruña (A),15005,981243814,43.359314,-8.4084635,Privada,Non,Non
36018100,CEIP As Bizocas,Balea,Grove (O),Pontevedra,36988,986738037,42.46364,-8.91238,Pública,Non,Si
15012420,CEIP de Oza dos Ríos,Rúa Lois 35,Oza dos Ríos,Coruña (A),15380,981792066,43.21543,-8.186152,Pública,Non,Si
36008489,CEP Altamira,Rúa Rosalía de Castro 11,Salceda de Caselas,Pontevedra,36470,986349046,42.10206,-8.56204,Pública,Non,Si
27016421,EOI de Monforte de Lemos,Rúa Calvo Sotelo 65,Monforte de Lemos,Lugo,27400,982410300,42.525272,-7.5054965,Pública,Non,Si
15022577,CEIP de Maciñeira,"Rúa Estrada do Roxal, 17 (Maciñeira)",Neda,Coruña (A),15510,981347595,43.502613,-8.128665,Pública,Non,Si
27000198,CEIP de Antas de Ulla,Rúa Miguel Ángel Blanco s/n,Antas de Ulla,Lugo,27570,982379238,42.78469,-7.8900986,Pública,Non,Si
27016571,ESMU Municipal de Foz,Rúa Alfonso X O Sabio s/n,Foz,Lugo,27780,982132689,43.569313,-7.2558017,Pública,Non,Non
36000922,IES María Soliño,Monte Carrasco 3,Cangas,Pontevedra,36940,986301082,42.27752,-8.791502,Pública,Non,Si
27016716,IES Fonmiñá,Avenida Doutor Cabaneiro s/n,Pastoriza (A),Lugo,27287,982332013,43.298943,-7.339291,Pública,Non,Si
15023077,CEIP de Gándara-Sofán,Lugar GÁNDARA,Carballo,Coruña (A),15108,981753073,43.193256,-8.626928,Pública,Non,Si
15005300,IES Rafael Puga Ramón,Rúa Leopoldo Alas Clarín 4,Coruña (A),Coruña (A),15008,981231545,43.349236,-8.410774,Pública,Non,Non
36003959,CEIP Manuel Rodríguez Sinde,Rúa Circunvalacion,Guarda (A),Pontevedra,36780,986611116,41.899452,-8.870891,Pública,Non,Si
36004496,CEP de Sequelo-Marín,Rúa ENRIQUE TURRALL s/n,Marín,Pontevedra,36900,986880610,42.384594,-8.700811,Pública,Non,Si
36016656,IES Pedro Floriani,Rúa Pedro Floriani 2,Redondela,Pontevedra,36800,986401911,42.290268,-8.609397,Pública,Non,Si
36007497,CEIP Nosa Señora dos Remedios,Rúa Azorin s/n,Ponteareas,Pontevedra,36860,986640740,42.171154,-8.505171,Pública,Non,Si
27007260,CFEA de Monforte de Lemos,Rúa Alfredo Brañas s/n,Monforte de Lemos,Lugo,27400,982889103,42.5078,-7.498502,Pública,Non,Non
27016297,IES Enrique Muruais,Zona escolar s/n,Pontenova (A),Lugo,27720,982342185,43.354156,-7.192998,Pública,Non,Si
15032637,ESMU Municipal de Muros,Rúa San xosé s/n,Muros,Coruña (A),,-,42.773792,-9.058335,Pública,Non,Non
15020374,EEI de Extramundi de Arriba,Padrón (Santiago),Padrón,Coruña (A),15910,697890449,42.749313,-8.668693,Pública,Non,Si
27016728,CEIP Illa Verde,Rúa Roi Xordo 2,Lugo,Lugo,27002,982241020,43.00032,-7.5509763,Pública,Non,Si
32009074,CPR Seminario Menor Diocesano A Inmaculada,Estrada do Seminario 18,Ourense,Ourense,32002,988391104,42.34237,-7.8817463,Privada,Non,Non
36016735,CEIP de Refoxos,Refoxos s/n,Oia,Pontevedra,36779,986359168,41.99563,-8.816212,Pública,Non,Si
15026391,IES Xulián Magariños,Rúa Castelao s/n,Negreira,Coruña (A),15830,981885349,42.912968,-8.732779,Pública,Non,Si
36024355,CMUS Elemental de Gondomar,Praza Doutor Latino Salgueiro,Gondomar,Pontevedra,0,986389283,42.1077,-8.760753,Pública,Non,Non
36010071,CEIP Santa Mariña,"Rúa do Xalon, s/n (Becerreira)",Vigo,Pontevedra,36318,986486901,42.220757,-8.654606,Pública,Non,Si
36001148,CPI da Cañiza,Acceso o Parque s/n,Cañiza (A),Pontevedra,36880,986651173,42.218502,-8.281298,Pública,Non,Si
36010150,CEIP Mestres Goldar,Rúa A COSTA 4,Vigo,Pontevedra,36213,986470839,42.213768,-8.722864,Pública,Non,Si
36024562,ESMU Municipal de Fornelos de Montes,Rúa das Escolas 7,Fornelos de Montes,Pontevedra,,-,42.341328,-8.4525,Pública,Non,Non
36014787,EEI Monte da Guía,Rúa Irmáns Misioneros dos enfermos pobres 37,Vigo,Pontevedra,36207,986379779,42.25306,-8.698664,Pública,Non,Si
15007886,CEIP Ramón Otero Pedrayo,Rúa Buenos Aires s/n,Laracha (A),Coruña (A),15145,981605131,43.24672,-8.593647,Pública,Non,Si
15013412,CEIP de Ombre,Ombre (Santa María),Pontedeume,Coruña (A),15608,981430608,43.409782,-8.141921,Pública,Non,Si
32011901,CEIP Virxe do Camiño,Rúa Terra de Souto s/n,Rubiá,Ourense,32310,988324205,42.45291,-6.9498878,Pública,Non,Si
36024586,ESAD Escola Superior de Arte Dramática de Galicia,Rúa POZA CABALO 1,Vigo,Pontevedra,36212,986246399,42.20882,-8.759407,Pública,Non,Si
15005749,IES Universidade Laboral,Rúa Salvador Allende,Culleredo,Coruña (A),15670,981660700,43.317894,-8.376646,Pública,Non,Si
15018987,CEIP de Castromil,Salto (Santa María),Vimianzo,Coruña (A),15129,679928567,43.13723,-9.003817,Pública,Non,Si
32015906,CEIP Pena Corneira,Rúa CALELLA DO QUINTO,Carballeda de Avia,Ourense,32413,988487030,42.317608,-8.164609,Pública,Non,Si
15032832,CPR Niño Jesús,Lugar Guiliade 116,Betanzos,Coruña (A),15319,981772586,0.0,0.0,Privada,Non,Non
36019256,IES de Vilalonga,Lugar A Salgueira 40,Sanxenxo,Pontevedra,36990,986744953,42.447464,-8.835422,Pública,Non,Si
15024963,CEIP Plurilingüe de Andrade,"Andrade, 39 A",Pontedeume,Coruña (A),15614,981432533,43.387577,-8.166012,Pública,Non,Si
36024719,EMUSPR de Vilanova,Rúa O Esteiro,Vilanova de Arousa,Pontevedra,,-,42.56281,-8.820284,Privada,Non,Non
27015785,CEIP de Currelos,Vilaesteva (San Salvador),Saviñao (O),Lugo,27547,982450304,42.677475,-7.6441884,Pública,Non,Si
27020689,ESMU Municipal  da Pastoriza,Pastoriza (O Salvador),Pastoriza (A),Lugo,27287,982332200,43.301556,-7.349317,Pública,Non,Non
36020091,EDANPR Deborah,Rúa Xan Guillermo 25,Pontevedra,Pontevedra,36001,986848283,42.434013,-8.649242,Privada,Non,Non
15023223,CEIP de Bemantes,Bemantes,Miño,Coruña (A),15635,981798068,43.33986,-8.173037,Pública,Non,Si
15011336,CEIP Alfonso D. Rodríguez Castelao,Rúa PARAISO s/n,Ordes,Coruña (A),15680,981680842,43.073227,-8.4018,Pública,Non,Si
15018148,CPI de Atios,Avenida SAN SADURNIÑO 19,Valdoviño,Coruña (A),15552,981487700,43.61219,-8.136974,Pública,Non,Si
36015202,CEIP de Lourido,"Camiño da Fernanda, 36 (Lourido)",Poio,Pontevedra,36163,986770949,42.427364,-8.677347,Pública,Non,Si
15021056,EEI de Arretén,Iria Flavia (Santa María),Padrón,Coruña (A),15917,662370487,42.742542,-8.649641,Pública,Non,Si
36019104,CEIP Plurilingüe Nantes,Rúa Pedrouzos 2,Sanxenxo,Pontevedra,36969,986691000,42.420208,-8.809555,Pública,Non,Si
15008817,IES de Melide,O Marquiño,Melide,Coruña (A),15800,981505162,42.917747,-8.011087,Pública,Non,Si
32016637,IES Cosme López Rodríguez,Rúa Vicente Risco s/n,Rúa (A),Ourense,32350,988310833,42.39211,-7.1281314,Pública,Non,Si
36020261,IES Terra de Turonio,Campo da Feira s/n,Gondomar,Pontevedra,36380,986384016,42.114433,-8.764642,Pública,Non,Si
27010921,CFEA Pedro Murias,Vilaframil,Ribadeo,Lugo,27797,982131017,43.54665,-7.120557,Pública,Non,Non
27006425,CPR Seminario Diocesano Sagrado Corazón,Rúa Anxo López Pérez s/n,Lugo,Lugo,27002,982220100,43.00762,-7.5557294,Privada,Non,Non
36015238,CEIP de Sobrada,Rúa Torrón,Tomiño,Pontevedra,,986633369,42.01937,-8.675435,Pública,Non,Si
36004137,IES Ramón Mª Aller Ulloa,Rúa DO PARQUE 8,Lalín,Pontevedra,36500,986780114,42.663982,-8.106101,Pública,Non,Si
36024276,CMUS Profesional de Cangas,"Rúa  Real, 29",Cangas,Pontevedra,36940,986307192,42.267666,-8.783258,Pública,Non,Non
15014465,CEIP Plurilingüe de Palmeira,Rúa Moldes 2,Ribeira,Coruña (A),15959,981838281,42.580696,-8.964114,Pública,Non,Si
15027654,IES Agra de Leborís,Rúa Rosalia de Castro s/n,Laracha (A),Coruña (A),15145,981605540,43.24661,-8.584152,Pública,Non,Si
32012711,CEIP Saco e Arce,Toén (Santa María),Toén,Ourense,32930,988261031,42.302574,-7.9478626,Pública,Non,Si
15023341,CEIP Santa María do Castro,Rúa Valiño 55,Boiro,Coruña (A),15939,981846555,42.619797,-8.874979,Pública,Non,Si
27000319,CEIP Concepción López Rey,"Rúa Doutor Nogueira, s/n (O Cadavo)",Baleira,Lugo,27130,982354008,43.013546,-7.2467546,Pública,Non,Si
36007631,CEIP de Porto Cabeiro,Estrada Porto Cabeiro 5,Redondela,Pontevedra,36815,986488103,42.246292,-8.630399,Pública,Non,Si
32013958,CEIP Xosé Manuel Folla Respino,Vilamartín De Valdeorras (San Xurxo),Vilamartín de Valdeorras,Ourense,32340,988300090,42.410866,-7.05053,Pública,Non,Si
27001609,CEIP Ramón Falcón,Avenida Alcalde Emilio Sinde Nieto s/n,Castro de Rei,Lugo,27250,982314003,43.205887,-7.3952084,Pública,Non,Si
15021688,EEI de Vilar,San Pedro De Nós (San Pedro),Oleiros,Coruña (A),15173,981664257,43.31714,-8.34284,Pública,Non,Si
32016650,CEMU Profesional Karl Nielsen,"Rúa do Progreso, 139 - baixo",Ourense,Ourense,32003,988216484,42.342205,-7.8680053,Privada,Non,Non
15005269,IES Urbano Lugrís,Avenida de Arteixo,Coruña (A),Coruña (A),15007,981235945,43.350506,-8.418542,Pública,Non,Si
36019268,IES Gonzalo Torrente Ballester,Rúa Herminia Fariña Cobián s/n,Pontevedra,Pontevedra,36003,986863612,42.421806,-8.641241,Pública,Non,Si
32015232,IES Lagoa de Antela,Avenida de Ourense 184,Xinzo de Limia,Ourense,32630,988462454,42.07598,-7.733061,Pública,Non,Si
32003643,CPI Virxe dos Remedios,O Toural,Castro Caldelas,Ourense,32760,988203089,42.371235,-7.414661,Pública,Non,Si
32020690,CE.ART Felicidad Duce,Rúa Paciños 2,Allariz,Ourense,32660,988436180,42.196785,-7.7510314,Privada,Non,Non
32000356,CEIP Plurilingüe Ramón Otero Pedrayo,Souto,Amoeiro,Ourense,32170,988281020,42.41521,-7.946763,Pública,Non,Si
15026169,CRA de Teo,Lugar SOLLÁNS 77,Teo,Coruña (A),15886,981807168,42.82551,-8.573377,Pública,Non,Si
32004829,CEIP Rosalía de Castro,Rúa Rosalia de Castro,Xinzo de Limia,Ourense,32630,988460480,42.05971,-7.7210283,Pública,Non,Si
15012225,CEIP Emilio Navasqüés,Roo (San Xoán),Outes,Coruña (A),15287,981765367,42.821682,-8.925221,Pública,Non,Si
27013673,CEIP de Casas,Rúa Orquidea 63,Lugo,Lugo,27004,982212700,43.013943,-7.5741677,Pública,Non,Si
36002335,IES Manuel García Barros,Rúa da Cultura s/n,Estrada (A),Pontevedra,36681,986590104,42.692513,-8.503903,Pública,Non,Si
36024501,EMUSPR de Mos,Rúa OUTEIRO s/n,Mos,Pontevedra,36417,986338325,42.203663,-8.619482,Privada,Non,Non
15019438,EEI do Seixo,"Avenida Bello Piñeiro, s/n (O Seixo)",Mugardos,Coruña (A),15626,981460977,43.45541,-8.2140045,Pública,Non,Si
27004428,CEIP de Foz nº 1,Rúa Salvador de Madariaga s/n,Foz,Lugo,27780,982140205,43.569035,-7.2562175,Pública,Non,Si
32015050,CIFP A Farixa,"Rúa Finca Farixa, s/n (Mariñamansa)",Ourense,Ourense,32005,988236552,42.323288,-7.868314,Pública,Non,Si
15027745,CEE A Barcia,A Barcia s/n,Santiago de Compostela,Coruña (A),15896,981537401,42.876465,-8.587956,Pública,Non,Si
15025530,IES da Pobra do Caramiñal,Xobre (Maño),Pobra do Caramiñal (A),Coruña (A),15940,981833900,42.59587,-8.928558,Pública,Non,Si
36005658,EEI de Taboexa,As Barreiras,Neves (As),Pontevedra,36448,630869185,42.13573,-8.4365,Pública,Non,Si
15020477,CPR Los Sauces,Roma  -  Zapateira 1,Coruña (A),Coruña (A),15310,981286799,43.3238,-8.40689,Privada,Non,Non
15004541,CPR San Andrés,"Rúa San Andres, 51 - 1º",Coruña (A),Coruña (A),15003,981203818,43.371517,-8.399898,Privada,Non,Non
15027666,ESMU Municipal de Cee,"Rúa da Escola, s/n (Escabanas)",Cee,Coruña (A),15270,981745100,42.9543,-9.188625,Pública,Non,Non
36015159,IES Chan do Monte,Rúa Chan do Monte 23,Marín,Pontevedra,36911,986883305,42.389416,-8.709744,Pública,Non,Si
36002220,CEIP Cabada Vázquez,Codeseda (San Xurxo),Estrada (A),Pontevedra,36684,986584015,42.61778,-8.444961,Pública,Non,Si
15032741,ESMU Escola de Música Municipal de Abegondo,Rúa San Marcos s/n,Abegondo,Coruña (A),15318,,43.2421,-8.277537,Pública,Non,Non
36024197,IES de Cotobade,O RÍO TENORIO s/n,Cotobade,Pontevedra,36120,986764061,42.462498,-8.56372,Pública,Non,Si
32001725,IES Lauro Olmo,Rúa Calabagueiros s/n,Barco de Valdeorras (O),Ourense,32300,988320175,42.416187,-6.9951153,Pública,Non,Si
36016644,CEIP de Laredo,Rúa do Peirao 3,Redondela,Pontevedra,36320,986451049,42.267616,-8.674316,Pública,Non,Si
36019669,IES Armando Cotarelo Valledor,"Rúa Armando Cotarelo Valledor, 4-6",Vilagarcía de Arousa,Pontevedra,36611,986512311,42.589703,-8.784058,Pública,Non,Si
15032303,CMUS Profesional da Coruña,Praza DO CONSERVATORIO s/n,Coruña (A),Coruña (A),15011,981276800,43.370594,-8.422008,Pública,Non,Si
32000058,CEIP Padre Feijoo,Estrada de Xunqueira,Allariz,Ourense,32660,988440825,42.190323,-7.7943907,Pública,Non,Si
15013591,CEIP Plurilingüe Santa María,Praza de America s/n,Pontes de García Rodríguez (As),Coruña (A),15320,981450721,43.449207,-7.8530545,Pública,Non,Si
15005361,CEIP Rosalía de Castro,Rúa Rio Avia s/n,Coruña (A),Coruña (A),15007,981241604,43.35846,-8.413183,Pública,Non,Si
15023466,IES Lamas de Abade,Rúa Raiola 8,Santiago de Compostela,Coruña (A),15702,981592461,42.862736,-8.536475,Pública,Non,Si
36019438,CEIP A Guía,Rúa Isamil 222-A,Moaña,Pontevedra,36955,986314173,42.278885,-8.711697,Pública,Non,Si
15005221,IES Plurilingüe Eusebio da Guarda,Praza de Pontevedra 20,Coruña (A),Coruña (A),15003,981223479,43.368145,-8.4079075,Pública,Non,Si
36016051,CEIP Seis do Nadal,Rúa Mondariz 2,Vigo,Pontevedra,36209,986291213,42.216217,-8.74687,Pública,Non,Si
15027162,CMUS Profesional de Melide,Rúa Galicia s/n,Melide,Coruña (A),15800,981507929,42.916096,-8.014419,Pública,Non,Non
15027010,CDAN Profesional da Coruña,"Rúa Franxa, 14 - Pazo de Martelo",Coruña (A),Coruña (A),15001,981080181,43.370968,-8.397063,Pública,Non,Non
36013618,CEIP de Figueiroa,"Avenida de Santiago, 101 (Figueroa)",Estrada (A),Pontevedra,36680,986570056,42.695446,-8.498662,Pública,Non,Si
15000363,CEIP Ponte dos Brozos,"Avenida Arsenio Iglesias, 34 (Sabon)",Arteixo,Coruña (A),15142,981600249,43.30694,-8.510333,Pública,Non,Si
36019967,EMUSPR Banda de Lalín,Rúa Polideportivo 10,Lalín,Pontevedra,36500,986783570,42.664562,-8.104542,Privada,Non,Non
36015871,CEIP de Meaño-As Covas,Rúa Herminia Fariña s/n,Meaño,Pontevedra,36968,986747262,42.442665,-8.780158,Pública,Non,Si
15023910,CEIP Martagona,Rúa Martagona s/n,Melide,Coruña (A),15800,981505929,42.91674,-8.006281,Pública,Non,Si
36020222,EMUSPR Asociación Amigos da Música,Rúa DR. ZUNZUNEGUI 39,Salceda de Caselas,Pontevedra,36470,652851818,42.10368,-8.557119,Privada,Non,Non
15021810,CEIP Santa Eulalia de Dumbría,Dumbría (Santa Baia),Dumbría,Coruña (A),15151,981744000,43.00892,-9.116569,Pública,Non,Si
15014556,CIFP Coroso,Avenida DA CORUÑA 174C,Ribeira,Coruña (A),15960,981870361,42.569416,-8.981806,Pública,Non,Si
15032315,ESMU Municipal de Santiago de Compostela,Rúa Proxecto Vagalume 2,Santiago de Compostela,Coruña (A),15704,,42.885365,-8.535808,Pública,Non,Non
36016991,CEP Plurilingüe de Riomaior,Riomaior 17,Vilaboa,Pontevedra,36142,986672434,42.320877,-8.655371,Pública,Non,Si
32020781,CEIP Plurilingüe O Ruxidoiro,Lugar Lamas-O Ruxidoiro,Barbadás,Ourense,32920,988392838,42.311253,-7.8862524,Pública,Non,Si
32005721,CEIP Víctor Manuel Vázquez Portomeñe,Rúa Vazquez Portomeñe,Xunqueira de Espadanedo,Ourense,32730,988291052,42.316948,-7.628235,Pública,Non,Si
36019153,EEI Rúa Hernán Cortés,Rúa Hernan Cortes 15,Vigo,Pontevedra,36203,986432331,42.233295,-8.718391,Pública,Non,Si
15015652,CEIP Apóstolo Santiago,Rúa Proxecto Vagalume 2,Santiago de Compostela,Coruña (A),15704,981543172,42.885174,-8.535878,Pública,Non,Si
15026807,IES Félix Muriel,Rúa MARÍA ANA MOGAS 1,Rianxo,Coruña (A),15920,981843700,42.65336,-8.808031,Pública,Non,Si
15032492,CRA de Dodro,Estrada De Imo 28,Dodro,Coruña (A),15982,981802421,42.713543,-8.722651,Pública,Non,Si
36004149,CEIP Xoaquín Loriga,Lugar Prado s/n,Lalín,Pontevedra,36512,986794016,42.68073,-8.180114,Pública,Non,Si
15027605,ESMU Municipal de Carnota,San Mamede De Carnota (San Mamede),Carnota,Coruña (A),15293,981857032,42.89351,-9.135889,Pública,Non,Non
15022310,CEIP A Gándara,"Rúa Colmeote, s/n (Gandara)",Narón,Coruña (A),15570,981386877,43.493202,-8.196048,Pública,Non,Si
36019621,ESCO de Conservación e Restauración de Bens Culturais,Rúa Xeral Martitegui s/n,Pontevedra,Pontevedra,36002,986861251,42.43211,-8.6491,Pública,Non,Si
36019724,CPR Cemar,Estrada Ponteareas - Mondariz,Mondariz-Balneario,Pontevedra,36890,986662430,42.224102,-8.478635,Privada,Non,Non
15006699,CEIP Recimil,Vivendas Protexidas s/n,Ferrol,Coruña (A),15403,981312846,43.48733,-8.225192,Pública,Non,Si
32015529,CEE O Pino,"Estrada de Vigo, 121 (Casar do Mato)",Ourense,Ourense,32001,988213220,42.35535,-7.891295,Pública,Non,Si
36019220,IES Auga da Laxe,Campo da Feira,Gondomar,Pontevedra,36380,986360501,42.113804,-8.7642355,Pública,Non,Si
32006358,CEIP do Xurés,Rúa Paraño 31,Lobios,Ourense,32870,988448007,41.901493,-8.080761,Pública,Non,Si
15003248,CEIP Eugenio López,"Rúa DA ESCOLA, S/N (ESCABANAS) 11",Cee,Coruña (A),15270,981745984,42.958527,-9.191995,Pública,Non,Si
15007400,CPI de Ponte Carreira,"Rúa do ensino, s/n - Ponte Carreira",Frades,Coruña (A),15686,981692094,43.020245,-8.255402,Pública,Non,Si
32011135,CEIP Rogelio Garcia Yáñez,Lugar O Picouto s/n,Ramirás,Ourense,32810,988491565,42.189453,-8.027369,Pública,Non,Si
36016954,CEIP Mestre Ramiro Sabell Mosquera,Rúa Barrio Barral s/n,Ponteareas,Pontevedra,36860,986661084,42.174168,-8.493444,Pública,Non,Si
32016789,CEIP Filomena Dato,Rúa Rúa do Ensino 4,Barbadás,Ourense,32890,988244869,42.318146,-7.8802695,Pública,Non,Si
27006966,IES Plurilingüe San Rosendo,Avenida As San Lucas 33,Mondoñedo,Lugo,27740,982521034,43.428066,-7.368296,Pública,Non,Si
15024771,CEP Plurilingüe de Carreira,Rúa Pé do Corniño s/n,Ribeira,Coruña (A),15967,981840265,42.5449,-9.012083,Pública,Non,Si
15018938,EEI de Carantoña,Praza de Carantoña 17,Vimianzo,Coruña (A),15129,638414189,43.137604,-9.093632,Pública,Non,Si
15032426,CEIP Graxal,Rúa FRANCISCO RODRÍGUEZ 6,Cambre,Coruña (A),15679,981663809,43.31974,-8.355354,Pública,Non,Si
36013539,EEI San Lourenzo de Moraña,A Espedregueira,Moraña,Pontevedra,36668,986552123,42.5679,-8.576578,Pública,Non,Si
15032546,CADFS Liceo la Paz da Coruña,Rúa Sebastián Martínez Risco 12,Coruña (A),Coruña (A),,981286299,43.341766,-8.401858,Privada,Non,Non
36019414,IES A Basella,Rúa A Basella s/n,Vilanova de Arousa,Pontevedra,36620,986554847,42.56449,-8.830143,Pública,Non,Si
15032871,CPR Suso Añón,Rúa Sánchez Calviño 48 Baixo,Ferrol,Coruña (A),15404,,0.0,0.0,Privada,Non,Non
15025751,EPAPU Sta. María de Caranza,Rúa Luis de Requesens s/n,Ferrol,Coruña (A),15406,981333017,43.485493,-8.209174,Pública,Non,Si
36013758,IES Laxeiro,Avenida Buenos Aires 71,Lalín,Pontevedra,36500,986787051,42.65719,-8.112083,Pública,Non,Si
32001312,CEIP de Baños de Molgas,Estrada de Salgueiros s/n,Baños de Molgas,Ourense,32701,988430268,42.24592,-7.6721077,Pública,Non,Si
27006553,IES Xoán Montes,Rúa Montevideo,Lugo,Lugo,27001,982241984,43.012047,-7.5619087,Pública,Non,Si
15008398,CEIP Francisco López Estrada,O Porto do Barqueiro,Mañón,Coruña (A),15337,981414127,43.741764,-7.704881,Pública,Non,Si
27007958,CPI Luís Díaz Moreno,Estrada de Aranza s/n,Baralla,Lugo,27680,982363397,42.892044,-7.2563624,Pública,Non,Si
36004745,IES Plurilingüe A Paralaia,Rúa O Redondo s/n,Moaña,Pontevedra,36950,986312217,42.294094,-8.735343,Pública,Non,Si
15016221,EEI do Rial,O Rial,Santiago de Compostela,Coruña (A),15896,981524165,42.866367,-8.589599,Pública,Non,Si
32009360,CPI José García García,Mende 1,Ourense,Ourense,32004,988232529,42.347206,-7.839303,Pública,Non,Si
32014801,IES Cidade de Antioquía,Avenida de Ourense 186,Xinzo de Limia,Ourense,32630,988460519,42.076725,-7.7336025,Pública,Non,Si
36003480,CEIP de Agolada,Avenida do IRYDA (Agolada) 20,Agolada,Pontevedra,36520,986788057,42.761765,-8.022476,Pública,Non,Si
15021536,CEIP Víctor López Seoane,"Vía Artabra, s/n (Monte Alto)",Coruña (A),Coruña (A),15002,981903823,43.38046,-8.403779,Pública,Non,Si
27016303,IES Pedregal de Irimia,Rúa Federico González López s/n,Meira,Lugo,27240,982330292,43.215107,-7.295834,Pública,Non,Si
36024677,ESMU Municipal de Moraña,Rúa O Buelo 4,Moraña,Pontevedra,36660,-,42.588287,-8.5918665,Pública,Non,Non
32003001,IES Nº 1,Rúa Alberto Vilanova s/n,Carballiño (O),Ourense,32500,988271000,42.425232,-8.069909,Pública,Non,Si
32005691,CEIP Padre Crespo,Xunqueira De Ambía (Santa María A Real),Xunqueira de Ambía,Ourense,32670,988436063,42.202892,-7.731553,Pública,Non,Si
15032662,IES O Mosteirón,Rúa Esperela,Sada,Coruña (A),15168,981620125,43.3496,-8.292017,Pública,Non,Si
15020714,EEI de Larín de Arriba,Lugar Rexedoiros-Larín,Arteixo,Coruña (A),15144,981606212,43.262825,-8.540749,Pública,Non,Si
36013023,CEIP de San Roque,Rúa SAN ROQUE DE CORON 112,Vilanova de Arousa,Pontevedra,36629,986554159,42.57094,-8.804501,Pública,Non,Si
15004204,IES Calvo Sotelo,Rúa Archer M. Huntington 24,Coruña (A),Coruña (A),15011,981252600,43.372448,-8.421697,Pública,Non,Non
27013855,CPR Radio ECCA,Garaballa de Arriba s/n,Lugo,Lugo,27003,982210602,43.029934,-7.563572,Privada,Non,Non
36010711,CEP Dr. Fleming,Rúa Ourense 15,Vigo,Pontevedra,36211,986415447,42.22615,-8.728009,Pública,Non,Si
27014100,EEI San Roque,Rúa Benito Galceran s/n,Viveiro,Lugo,27850,982561700,43.664627,-7.593339,Pública,Non,Si
27016170,CEIP Plurilingüe Santa Rita,Lugar Trabe s/n,Viveiro,Lugo,27867,982598902,43.63215,-7.6141853,Pública,Non,Si
32015037,IES Manuel Chamoso Lamas,Ant.Estrada Pontevedra - Mesego,Carballiño (O),Ourense,32516,988271122,42.42099,-8.092214,Pública,Non,Si
15000107,CEIP A Maía,"Rúa Peregrina, s/n (Bertamirans)",Ames,Coruña (A),15220,981883152,42.86752,-8.657312,Pública,Non,Si
36001550,CEIP Plurilingüe de Carballedo,Cuqueira s/n,Cotobade,Pontevedra,36856,986760901,42.47472,-8.476296,Pública,Non,Si
36003170,CEIP de Soutelo de Montes,Soutelo de Montes,Forcarei,Pontevedra,36560,986756198,42.584602,-8.355042,Pública,Non,Si
32015268,CEIP Plurilingüe Otero Novas,Baixada o Balneario s/n,Cortegada,Ourense,32200,988483117,42.20614,-8.172385,Pública,Non,Si
15002670,CEIP Canosa-Rus,Braña s/n,Coristanco,Coruña (A),15147,981700081,43.162193,-8.691471,Pública,Non,Si
36016590,CEIP de Abelendo,Rúa Abelendo,Moaña,Pontevedra,36954,986312233,42.283707,-8.743688,Pública,Non,Si
32015098,CEIP do Bolo,Rúa Cesar Conti s/n,Bolo (O),Ourense,32373,988323047,42.306866,-7.1000433,Pública,Non,Si
32016561,CMUS Elemental de Celanova,Praza Maior 1,Celanova,Ourense,32800,988431481,42.15198,-7.9579587,Pública,Non,Non
27016352,IES do Camiño,Praza Ulloa s/n,Palas de Rei,Lugo,27200,982380170,42.86912,-7.8673644,Pública,Non,Si
36016929,CEIP da Cruz-Budiño,San Salvador De Budiño (San Salvador),Porriño (O),Pontevedra,36475,986346317,42.116596,-8.59673,Pública,Non,Si
36019888,ESMU Municipal de Caldas de Reis,Rúa Herreria 1,Caldas de Reis,Pontevedra,36650,986540002,42.602634,-8.642437,Pública,Non,Non
36006729,IES Valle-Inclán,Avenida Montero Rios s/n,Pontevedra,Pontevedra,36001,986866448,42.430996,-8.647388,Pública,Non,Si
36018471,CEIP de Rebordáns,Curuxeiras,Tui,Pontevedra,36712,986602253,42.07361,-8.651749,Pública,Non,Si
27016674,CEP Luís Tobío,Avenida Martin Ledesma s/n,Viveiro,Lugo,27850,982561120,43.66426,-7.6001573,Pública,Non,Si
15027861,IES Pedra da Aguia,Rúa Curros s/n,Camariñas,Coruña (A),15121,981705003,43.14338,-9.110176,Pública,Non,Si
36008751,CEIP Plurilingüe Infante Felipe de Borbón,"Rúa da Escola, s/n",Salvaterra de Miño,Pontevedra,36450,986658011,42.08458,-8.504474,Pública,Non,Si
36019891,ESMU Municipal  Bernardo del Rio Parada,Rúa Rosalia de Castro 24,Vilagarcía de Arousa,Pontevedra,36600,986510770,42.599655,-8.765153,Pública,Non,Non
36004691,CEIP de Coirón-Dena,Rúa dos Colexios,Meaño,Pontevedra,36967,986743247,42.455917,-8.812194,Pública,Non,Si
15014295,EEI Capela-Carreira,Carreira (San Paio),Ribeira,Coruña (A),15967,675104549,42.540417,-9.012764,Pública,Non,Si
36013096,CEIP de San Bartolomé,Rúa r/ Gombra 9,Vilanova de Arousa,Pontevedra,36628,986543990,42.537903,-8.763539,Pública,Non,Si
36000843,EMUSPR Agrupación Musical do Rosal,Rúa Couso s/n - Auditorio do Concello,Rosal (O),Pontevedra,36770,986626130,41.935146,-8.83549,Privada,Non,Non
27020896,ESMU Municipal de Rábade,Rúa Alcalde José Penas s/n,Rábade,Lugo,,,43.12072,-7.622355,Pública,Non,Non
27020628,EOI de Viveiro,"Rúa  Lavandeira, s/n - 1º",Viveiro,Lugo,27863,982551745,43.676285,-7.5899863,Pública,Non,Si
15023740,CEIP A Solaina,Rúa CARDENAL CISNEROS s/n,Narón,Coruña (A),15570,981383600,43.500656,-8.202034,Pública,Non,Si
15014775,EEI de Sorribas,Sorribas (San Tomé),Rois,Coruña (A),15911,636158869,42.789658,-8.675253,Pública,Non,Si
36019281,CPR Sek-Atlántico,"Illa de Arousa, 4 - Boa Vista",Poio,Pontevedra,36005,986872277,42.439846,-8.656901,Privada,Non,Non
36024847,CAD Cenafe,"Rúa As Lagoas, Marcosende",Vigo,Pontevedra,36130,,0.0,0.0,Privada,Non,Non
15001847,CEIP Plurilingüe de Pedrouzos,Pedrouzos s/n,Brión,Coruña (A),15865,981887080,42.862,-8.677074,Pública,Non,Si
36020076,EDANPR Esperanza Arrondo,Rúa Romil 78,Vigo,Pontevedra,36211,986470039,42.232822,-8.7239065,Privada,Non,Non
15032650,EPAPU de Teixeiro,Estrada de Paradela s/n,Curtis,Coruña (A),15310,981779546,43.157578,-7.987983,Pública,Non,Si
36017201,CEE Príncipe Felipe,Lugar CIDADE INFANTIL PRINCIPE FELIPE (MONTECELO) 16,Pontevedra,Pontevedra,36161,986804135,42.426353,-8.617358,Pública,Non,Non
15013199,CEP Salustiano Rey Eiras,Rúa BANDASECA s/n,Pobra do Caramiñal (A),Coruña (A),15940,981830475,42.597767,-8.940317,Pública,Non,Si
36018501,IES Monte Carrasco,Rúa Monte Carrasco 2,Cangas,Pontevedra,36940,986304047,42.27567,-8.793926,Pública,Non,Si
36024513,ESMU Municipal Lied em.,"Rúa MIRAFLORES , PAZO EMILIA PARDO BAZAN 26 A",Sanxenxo,Pontevedra,36960,986727936,42.403732,-8.799008,Pública,Non,Non
15000338,CPI Conde de Fenosa,Avenida Celso Emilio Ferreiro 4,Ares,Coruña (A),15624,981468189,43.429363,-8.246173,Pública,Non,Si
15032212,CRA Os Remuíños,Rúa Cotaredo 9,Cabana de Bergantiños,Coruña (A),15149,981748773,43.171284,-8.911994,Pública,Non,Si
15012626,EEI de Pontecesures,"Rúa Calzada, s/n (Pontecesures)",Padrón,Coruña (A),15900,627731354,42.727776,-8.6572,Pública,Non,Si
15017041,CEIP A Igrexa-Calo,Lugar FIXÓ 14,Teo,Coruña (A),15895,981548166,42.82712,-8.5949545,Pública,Non,Si
36018941,EOI de Vigo,Avenida Emilio Martinez Garrido 17,Vigo,Pontevedra,36205,986260261,42.22852,-8.699575,Pública,Non,Si
36015068,CEIP Balaídos,Rúa Pablo Iglesias 1,Vigo,Pontevedra,36210,986202719,42.21107,-8.743864,Pública,Non,Si
36018975,CEIP A Rúa,A Rúa- Coiro,Cangas,Pontevedra,36940,986303918,42.2675,-8.764638,Pública,Non,Si
15026698,IES Espiñeira,Espiñeira,Boiro,Coruña (A),15930,981847677,42.656757,-8.882314,Pública,Non,Si
36013771,IES Fermín Bouza Brey,Rúa Fontecarmoa 92,Vilagarcía de Arousa,Pontevedra,36600,986503800,42.583626,-8.772015,Pública,Non,Si
36014881,CEIP Plurilingüe Alexandre Bóveda,Rúa ALEXANDRE BÓVEDA 12,Redondela,Pontevedra,36320,986450600,42.270866,-8.664884,Pública,Non,Si
36024203,IES Faro das Lúas,Rúa CUXHAVEN 7,Vilanova de Arousa,Pontevedra,36620,986555711,42.564873,-8.825519,Pública,Non,Si
15012262,CEIP Plurilingüe da Serra de Outes,"Praza de Galicia, s/n(A Serra de O.)",Outes,Coruña (A),15230,981850021,42.840668,-8.906136,Pública,Non,Si
36000031,CEIP Antonio Carpintero,"Rúa Miguel Davila, s/n (Consistorio)",Arbo,Pontevedra,36430,986665090,42.113,-8.3135605,Pública,Non,Si
15021524,CEIP A Cristina,Rúa Eduardo Blanco Amor s/n,Carballo,Coruña (A),15100,981702356,43.217636,-8.685712,Pública,Non,Si
15021160,EEI de Traba,Campo dos Bois (Melgueiras) s/n,Laxe,Coruña (A),15119,981735553,43.178463,-9.039077,Pública,Non,Si
15016449,CPR Juniors,Silvouta - Roxos,Santiago de Compostela,Coruña (A),15896,981537306,42.87094,-8.601979,Privada,Non,Non
32016546,CMUS Profesional de Ribadavia,Rúa Redondela s/n,Ribadavia,Ourense,32400,988471900,42.285572,-8.145397,Pública,Non,Non
27002249,CPI de Castroverde,Rúa dos Nenos s/n,Castroverde,Lugo,27120,982312076,43.03091,-7.3233757,Pública,Non,Si
36019921,CPR Los Sauces,SAN PEDRO DE CELA,Mos,Pontevedra,36419,986468384,42.169765,-8.674992,Privada,Non,Non
32016029,CEIP Ben-Cho-Shey,Lugar A Chaira s/n,Pereiro de Aguiar (O),Ourense,32710,988259454,42.338966,-7.786506,Pública,Non,Si
15032731,CADF FEDERACIÓN GALEGA DE FÚTBOL,Rúa MENÉNDEZ Y PELAYO 18 2,Coruña (A),Coruña (A),15005,981120619,43.363136,-8.407623,Privada,Non,Non
15024215,EEI de Fontelo,Santa María De Ois (Santa María),Coirós,Coruña (A),15316,639709895,43.247227,-8.163167,Pública,Non,Si
15010575,CEIP O Coto,Rúa Rosalia Castro,Negreira,Coruña (A),15830,981885336,42.91156,-8.734538,Pública,Non,Si
36000685,CEIP Pedro Antonio Cerviño,A Lagoa,Campo Lameiro,Pontevedra,36110,986752035,42.54235,-8.543337,Pública,Non,Si
27011287,CEIP Plurilingüe de Riotorto,As Rodrigas,Riotorto,Lugo,27744,982346089,43.340855,-7.264028,Pública,Non,Si
36018550,CEMU Profesional Mayeusis,Rúa Areal 118,Vigo,Pontevedra,36201,986226378,42.238796,-8.711525,Privada,Non,Non
36024631,CADFS Constantino Castro Ruso,Travesa 3ª travesía Salgueira nº 46,Vigo,Pontevedra,,981134238,42.223625,-8.715473,Privada,Non,Non
32013612,IES Xesús Taboada Chivite,Avenida de Portugal 116,Verín,Ourense,32600,988410041,41.93348,-7.439378,Pública,Non,Si
36013059,CEIP de Viñagrande-Deiro,Vila VIÑAGRANDE 65A,Vilanova de Arousa,Pontevedra,36620,986554527,42.541508,-8.818889,Pública,Non,Si
15026421,IES Plurilingüe Rafael Dieste,Prol.Manuel Murguia/esq.Rda.Outeiro,Coruña (A),Coruña (A),15011,981277911,43.3689,-8.424078,Pública,Non,Si
32016081,EOI de Ourense,Paseo Mestre Vide s/n,Ourense,Ourense,32004,988366073,42.34581,-7.858304,Pública,Non,Si
15026406,IES de Ponteceso,Rúa Teresa Mosquera Manso s/n,Ponteceso,Coruña (A),15110,981714477,43.240124,-8.891244,Pública,Non,Si
36001665,CEIP de Tenorio,O Rio Tenorio,Cotobade,Pontevedra,36120,986764102,42.46265,-8.560733,Pública,Non,Si
15014799,CEIP Plurilingüe de Pumar-Urdilde,O Pumar,Rois,Coruña (A),15281,981805018,42.82802,-8.737693,Pública,Non,Si
36010721,CEIP Ramón y Cajal,Rúa Marques de Valterra 8,Vigo,Pontevedra,36202,986293409,42.23398,-8.732365,Pública,Non,Si
36010265,EEI Cristo da Victoria,Rúa Caldas de Reis 11,Vigo,Pontevedra,36209,986202717,42.216312,-8.750808,Pública,Non,Si
36015861,CEIP San Clemente de Cesar,Lugar Baltar 25,Caldas de Reis,Pontevedra,36654,986540963,42.63489,-8.631949,Pública,Non,Si
36024011,CE.ART Aula D,"Rúa Ourense, 4 - patio central baixo",Vigo,Pontevedra,36211,986214076,42.22582,-8.729924,Privada,Non,Non
27015761,IES Ánxel Fole,Rúa Angelo Colocci s/n,Lugo,Lugo,27003,982212722,43.02421,-7.570755,Pública,Non,Si
32015426,EEI de Taboadela,Taboadela (San Miguel),Taboadela,Ourense,32690,988436785,42.24138,-7.8250713,Pública,Non,Si
15032224,CEMU Elemental Alca,Lugar Biduído de Arriba 36,Ames,Coruña (A),15895,981531103,42.846436,-8.600529,Privada,Non,Non
36000363,ESCO DE FP MARÍTIMO PESQUEIRA,Rúa Pazos Fontenla s/n,Bueu,Pontevedra,36930,986321143,42.326904,-8.781408,Pública,Non,Non
15032856,EMUSPR Sementeira de Cambre,Rúa O Souto 8 Baixo,Cambre,Coruña (A),15181,,0.0,0.0,Privada,Non,Non
15027447,EDANPR BSdanza,"Rúa Nova de Abaixo, 16 (Galerias)",Santiago de Compostela,Coruña (A),15706,981594586,42.874672,-8.550657,Privada,Non,Non
15025037,CEIP Sagrada Familia,Ronda de Outeiro 211,Coruña (A),Coruña (A),15007,981142252,43.357193,-8.4184885,Pública,Non,Si
27004635,CPI Dr. López Suárez,Praza de España s/n,Friol,Lugo,27220,982375330,43.02973,-7.7901864,Pública,Non,Si
27009050,CEIP Monte Baliño,Estrada de Escairon s/n,Pantón,Lugo,27430,982456100,42.50398,-7.634597,Pública,Non,Si
32016339,IES de Allariz,Rúa Emilia Pardo Bazan s/n,Allariz,Ourense,32660,988440129,42.187973,-7.801889,Pública,Non,Si
27020604,EMUSPR Cantarela,Rúa Xian s/n,Lugo,Lugo,27003,982652061,43.020794,-7.5856304,Privada,Non,Non
15032388,EMUSPR Banda de Noia,Campo DE NOIA,Noia,Coruña (A),15200,,42.785046,-8.887521,Privada,Non,Non
15020672,EEI de Rorís,Armentón (San Pedro),Arteixo,Coruña (A),15142,981640238,43.286743,-8.546583,Pública,Non,Si
36010460,CEIP Alfonso D. Rodríguez Castelao,Rúa Pedra Seixa 35,Vigo,Pontevedra,36212,986241585,42.209255,-8.76085,Pública,Non,Si
36015044,EEI Monte do Alba,Camiño da Igrexa 133,Vigo,Pontevedra,36314,986469241,42.175495,-8.7239275,Pública,Non,Si
32007272,CEIP Augusto Assía,A Mezquita,Mezquita (A),Ourense,32549,988425526,42.01526,-7.0489097,Pública,Non,Si
36010484,CEIP Eduardo Pondal,"Rúa Rosal Florido, 24 (Sampaio)",Vigo,Pontevedra,36215,986278479,42.234535,-8.690565,Pública,Non,Si
15019301,CPI de San Vicente,Rúa Tadelle,Baña (A),Coruña (A),15863,981886555,42.960224,-8.764242,Pública,Non,Si
36006432,CPR Salvador Moreno,Rúa Rosalía de Castro 66,Pontevedra,Pontevedra,36001,986852507,42.425713,-8.651445,Privada,Non,Non
27016558,CMUS Profesional de Lugo,Rúa Castiñeira 5,Lugo,Lugo,27002,982250563,42.99942,-7.546835,Pública,Non,Si
36014945,CEIP de Valeixe,As Touzosas,Cañiza (A),Pontevedra,36880,986654109,42.153896,-8.286792,Pública,Non,Si
32016625,IES Celanova Celso Emilio Ferreiro,Rúa Fernandez Losada s/n,Celanova,Ourense,32800,988431565,42.151764,-7.957771,Pública,Non,Si
36015652,CEIP O Piñeiriño,Rúa Adolfo Pedrido Morla 1,Vilagarcía de Arousa,Pontevedra,36600,986504366,42.58586,-8.773345,Pública,Non,Si
15026960,CEIP de Ponzos,Rúa Ponzos s/n,Ferrol,Coruña (A),15404,981370480,43.48912,-8.2162285,Pública,Non,Si
36010538,CEIP Lope de Vega,Rúa Emilia Pardo Bazán 119,Vigo,Pontevedra,36214,986480485,42.2224,-8.710913,Pública,Non,Si
36000648,CEIP Enrique Barreiro Piñeiro,Rúa Sineiro,Cambados,Pontevedra,36633,986542553,42.518105,-8.792635,Pública,Non,Si
15032170,CPR Astarté,"Alfredo Brañas, 15 - semisoto",Carballo,Coruña (A),15100,981702752,43.21747,-8.687402,Privada,Non,Non
15001811,EEI de Sabaxáns,Bastavales (San Xulián),Brión,Coruña (A),15280,699367595,42.826664,-8.659102,Pública,Non,Si
36024550,CMUS Elemental de Cambados,Rúa San Francisco 3,Cambados,Pontevedra,,-,42.515446,-8.813224,Pública,Non,Non
15005211,IES Salvador de Madariaga,Rúa Paseo de Ronda 49,Coruña (A),Coruña (A),15011,981255143,43.36996,-8.420828,Pública,Non,Si
36017636,EEI de Xil-Meaño,Xil (Santa Eulalia),Meaño,Pontevedra,36968,986747777,42.45853,-8.786852,Pública,Non,Si
15014751,EEI de Seira,Seira (San Lourenzo),Rois,Coruña (A),15911,686858641,42.76601,-8.673271,Pública,Non,Si
36017430,IES Ricardo Mella,Estrada Vella de Madrid 177,Vigo,Pontevedra,36214,986253711,42.217907,-8.67959,Pública,Non,Si
15027885,IES Lamas de Castelo,Lugar LAMAS DE CASTELO s/n,Carnota,Coruña (A),15293,981760667,42.820683,-9.087484,Pública,Non,Si
32004830,CEIP Carlos Casares,Rúa Marcelo Macias 59,Xinzo de Limia,Ourense,32630,988460507,42.0662,-7.7209263,Pública,Non,Si
36024069,CRA A Picaraña,Lugar Vilanova 1,Ponteareas,Pontevedra,36863,986649322,42.151344,-8.50574,Pública,Non,Si
36020386,IES Marco do Camballón,Camballón 24,Vila de Cruces,Pontevedra,36590,986582251,42.792637,-8.159539,Pública,Non,Si
15015688,CEIP Raíña Fabiola,Rúa Entregaleras s/n,Santiago de Compostela,Coruña (A),15705,981585372,42.881847,-8.55041,Pública,Non,Si
27011743,CEIP Antonio Fernández López,Oural,Sarria,Lugo,27392,982546600,42.716038,-7.4461145,Pública,Non,Si
36024690,ESMU MUNICIPAL DE FORCAREI,Rúa Maleitas,Forcarei,Pontevedra,36550,,42.584656,-8.354754,Pública,Non,Non
36009494,CEIP de Tebra,A Igrexa,Tomiño,Pontevedra,36746,986624157,42.041695,-8.733862,Pública,Non,Si
36010733,CEE Saladino Cortizo,Rúa Carballal 60,Vigo,Pontevedra,36318,986288188,42.23834,-8.638246,Pública,Non,Si
15027927,IES Ramón Caamaño,Rúa Manuel Lastres 33,Muxía,Coruña (A),15124,981742277,43.102207,-9.217341,Pública,Non,Si
15026194,CEIP Plurilingüe A Fraga,Avenida da Habana s/n,Pontes de García Rodríguez (As),Coruña (A),15320,981451404,43.45031,-7.844976,Pública,Non,Si
36014994,EEI Concepción Crespo Rivas,Paseo de Valle Inclán s/n,Pontevedra,Pontevedra,36001,986843058,42.427048,-8.645345,Pública,Non,Si
15003054,CEIP Nicolás del Río,Rúa Lopez Corton s/n,Cedeira,Coruña (A),15350,981480377,43.65938,-8.054523,Pública,Non,Si
15032133,ESMU Municipal de Ortigueira,"Rúa Rvdo. Márquez Cortiñas, s/n 00",Ortigueira,Coruña (A),15330,981402432,43.687252,-7.851019,Pública,Non,Non
27007132,ESMU Municipal de Chantada,Praza de Galicia 1,Chantada,Lugo,27500,982440011,42.60955,-7.7685227,Pública,Non,Non
15032169,CPR Tomás Barros,Rúa Ramón Mª. Aller 10 B,Coruña (A),Coruña (A),15010,981270168,43.362816,-8.418701,Privada,Non,Non
36020295,IES Mestre Landín,Lugar A RAÑA - SAN XULIAN,Marín,Pontevedra,36915,986891989,42.384014,-8.695014,Pública,Non,Si
36024641,ESMU Municipal de Mondariz,Rúa Pé do Muíño,Mondariz,Pontevedra,,986656573,42.234047,-8.471875,Pública,Non,Non
27020756,CPR TIC,Rúa Frei Plácido Rey Lemos s/n,Lugo,Lugo,27004,982284667,43.007046,-7.560659,Privada,Non,Non
15026741,CMUS Profesional das Pontes de G.Rodríg.,Avenida das Veigas s/n,Pontes de García Rodríguez (As),Coruña (A),15320,981440320,43.45081,-7.862783,Pública,Non,Non
27016649,IES Alfoz - Valadouro,Estr. Mondoñedo-Ferreira do Valadouro,Alfoz,Lugo,27774,982574307,43.54345,-7.422407,Pública,Non,Si
15011026,CEIP da Rabadeira,Rúa do Ensino 3,Oleiros,Coruña (A),15173,981610023,43.331085,-8.324424,Pública,Non,Si
15005932,CEIP de Curtis,"Rúa Alcalde Espiñeira, s/n (Curtis-Estacion)",Curtis,Coruña (A),15379,981786277,43.12222,-8.145381,Pública,Non,Si
15001665,CPI Plurilingüe Antonio Orza Couto,O Forte,Boqueixón,Coruña (A),15881,981513455,42.825375,-8.416602,Pública,Non,Si
15006742,IES Concepción Arenal,Rúa Cuntis s/n,Ferrol,Coruña (A),15403,981310104,43.487774,-8.22876,Pública,Non,Si
36024392,CPR Aula Estudio,Rúa Santa Marta interior s/n,Vigo,Pontevedra,36202,986436212,42.234562,-8.730553,Privada,Non,Non
15027423,CPR Dolores Ramos - Manuel Peleteiro,Rúa Santiago Leon de Caracas s/n,Santiago de Compostela,Coruña (A),15701,981597266,42.87123,-8.546233,Privada,Non,Non
15003881,CPI Alcalde Xosé Pichel,"Rúa Traba, 88 (San Roque)",Coristanco,Coruña (A),15147,981733070,43.19042,-8.735837,Pública,Non,Si
27016285,CMUS Profesional de Viveiro,Rúa da Marina s/n,Viveiro,Lugo,27850,982560486,43.6606,-7.5972285,Pública,Non,Non
32020732,ESMU Municipal de san Cibrao das Viñas,Praza DA CONSTITUCIÓN 2,San Cibrao das Viñas,Ourense,32911,,42.29835,-7.873957,Pública,Non,Non
15019347,CPI Camiño de Santiago,Rúa do Concello 16,Pino (O),Coruña (A),15821,981511018,42.90799,-8.364847,Pública,Non,Si
15018343,CEIP Xacinto Amigo Lera,Entrepontes,Val do Dubra,Coruña (A),15871,981882576,42.962124,-8.6516695,Pública,Non,Si
36020313,IES de Ponte Caldelas,Valdarosa s/n,Ponte Caldelas,Pontevedra,36820,986750705,42.386936,-8.504702,Pública,Non,Si
32015141,CEIP de Vilariño de Conso,Estrada Raigada s/n,Vilariño de Conso,Ourense,32557,988340335,42.16232,-7.1806707,Pública,Non,Si
36010101,CEIP O Sello,"Rúa Sardomela, 5 (O Sello)",Vigo,Pontevedra,36215,986277744,42.221695,-8.668816,Pública,Non,Si
15021482,IES San Clemente,Rúa San Clemente s/n,Santiago de Compostela,Coruña (A),15705,981580496,42.878563,-8.547453,Pública,Non,Si
36007709,CEIP de Santo Paio de Abaixo,Camiño do Colexio de Reboreda 3,Redondela,Pontevedra,36818,986402016,42.288654,-8.5967,Pública,Non,Si
36009172,CPI Manuel Padín Truiteiro,Arcade de Arriba,Soutomaior,Pontevedra,36690,986700049,42.33818,-8.599849,Pública,Non,Si
36004101,CEIP Xesús Golmar,Rúa E 9,Lalín,Pontevedra,36500,986780043,42.66354,-8.106633,Pública,Non,Si
15032479,ESMU  municipal de Cabana de Bergantiños,A CARBALLA,Cabana de Bergantiños,Coruña (A),15115,,43.218987,-8.930229,Pública,Non,Non
36024239,CEMU Profesional  Coppelia,"Rúa  Pi y Margall, 61 00",Vigo,Pontevedra,36202,986222930,42.233418,-8.730204,Privada,Non,Non
36014611,CEIP A Lama,"Avenida do Concello, (A Pedreira) 22",Lama (A),Pontevedra,36830,986768132,42.396618,-8.443132,Pública,Non,Si
27015311,IES A Pinguela,Estrada de Sober,Monforte de Lemos,Lugo,27400,982403111,42.511955,-7.5258546,Pública,Non,Si
36011580,IES San Tomé de Freixeiro,Rúa Gran Vía 191,Vigo,Pontevedra,36210,986231667,42.220474,-8.730262,Pública,Non,Si
36018999,IES As Barxas,Rúa Fonte do Unicornio 2,Moaña,Pontevedra,36950,986314243,42.290276,-8.73559,Pública,Non,Si
27013703,CEIP de Quiroga,Rúa Río Lor,Quiroga,Lugo,27320,982428200,42.473938,-7.2675676,Pública,Non,Si
36014520,IES Pedra da Auga,Feliciano Barrera s/n,Ponteareas,Pontevedra,36860,986641017,42.1734,-8.496656,Pública,Non,Si
15024756,EEI de Carballosa,San Pedro De Muro (San Pedro),Porto do Son,Coruña (A),15994,687041475,42.62041,-9.027886,Pública,Non,Si
